{"cached_at": "2026-04-07T17:41:39.428365+00:00", "zone_key": "ky_cayman_islands", "count": 94, "hotels": [{"source": "geoapify", "source_id": "51c29bc870395854c059cee877e8aa563340f00102f9015c7359160000000092031d5468652053756e7368696e6520486f74656c20616e6420537569746573", "zone_key": "ky_cayman_islands", "name": "The Sunshine Hotel and Suites", "brand": "", "latitude": 19.3385454, "longitude": -81.3785059, "address": "The Sunshine Hotel and Suites", "city": "West Bay", "state": "", "postcode": "KY1-1201", "country": "Cayman Islands", "phone": "(345) 949-3000", "website": "https://sunshinesuites.com/", "stars_osm": ""}, {"source": "geoapify", "source_id": "512dfd550f7c5854c059069a97a5e7583340f00102f901ba7db5030000000092030f486172626f75722048656967687473", "zone_key": "ky_cayman_islands", "name": "Harbour Heights", "brand": "", "latitude": 19.3472847, "longitude": -81.382572, "address": "Harbour Heights", "city": "West Bay", "state": "", "postcode": "KY1-1108", "country": "Cayman Islands", "phone": "1-345-945-4295", "website": "https://www.harbourheightscayman.com/", "stars_osm": ""}, {"source": "geoapify", "source_id": "51d6b18546605854c05952c381cdde563340f00102f901c67db503000000009203355468652057657374696e204772616e64204361796d616e20536576656e204d696c65204265616368205265736f7274202620537061", "zone_key": "ky_cayman_islands", "name": "The Westin Grand Cayman Seven Mile Beach Resort & Spa", "brand": "Westin", "latitude": 19.3393372, "longitude": -81.3808762, "address": "The Westin Grand Cayman Seven Mile Beach Resort & Spa", "city": "West Bay", "state": "", "postcode": "KY1-1201", "country": "Cayman Islands", "phone": "+1 345 945 3800", "website": "https://www.marriott.com/en-us/hotels/gcmmi-the-westin-grand-cayman-seven-mile-beach-resort-and-spa/overview/", "stars_osm": ""}, {"source": "geoapify", "source_id": "516e2dfdf1af5854c0593e93494a1f503340f00102f901bc99b413000000009203104772616e647669657720436f6e646f73", "zone_key": "ky_cayman_islands", "name": "Grandview Condos", "brand": "", "latitude": 19.3129774, "longitude": -81.3857388, "address": "Grandview Condos", "city": "George Town", "state": "", "postcode": "KY1-1205", "country": "Cayman Islands", "phone": "+1 345-945-4511", "website": "https://www.grandviewcondos.com/", "stars_osm": ""}, {"source": "geoapify", "source_id": "5184493346b45954c059fd21cd84ba633340f00102f9010228fe1500000000920312526f636b792053686f72652056696c6c6173", "zone_key": "ky_cayman_islands", "name": "Rocky Shore Villas", "brand": "", "latitude": 19.3895648, "longitude": -81.4016281, "address": "Rocky Shore Villas", "city": "West Bay", "state": "", "postcode": "KY1-1401", "country": "Cayman Islands", "phone": "1-345-926-0119", "website": "http://www.getaway.ky", "stars_osm": ""}, {"source": "geoapify", "source_id": "514ec521bd165954c059ceb675081c5d3340f00102f901e29255160000000092030d417175612042617920436c7562", "zone_key": "ky_cayman_islands", "name": "Aqua Bay Club", "brand": "", "latitude": 19.363709, "longitude": -81.3920129, "address": "Aqua Bay Club", "city": "West Bay", "state": "", "postcode": "KY1-1108", "country": "Cayman Islands", "phone": "1 800 825 8703", "website": "https://www.aquabayclub.com/", "stars_osm": ""}, {"source": "geoapify", "source_id": "5154be0c6bcff853c05941d8ffee1daf3340f00103f9011184bf2f000000009203184361796d616e2042726163204265616368205265736f7274", "zone_key": "ky_cayman_islands", "name": "Cayman Brac Beach Resort", "brand": "", "latitude": 19.6840505, "longitude": -79.8876598, "address": "Cayman Brac Beach Resort", "city": "West End", "state": "", "postcode": "KY-3", "country": "Cayman Islands", "phone": "+1-800-594-0843", "website": "https://www.caymanbracbeachresort.com/", "stars_osm": ""}, {"source": "geoapify", "source_id": "51b0b959724b0354c0591df0b5b002ad3340f00103f90143599cf40000000092030b53756e73657420436f7665", "zone_key": "ky_cayman_islands", "name": "Sunset Cove", "brand": "", "latitude": 19.6758223, "longitude": -80.0514799, "address": "Sunset Cove", "city": "", "state": "", "postcode": "", "country": "Cayman Islands", "phone": "+1 345-917-7307", "website": "http://www.sunsetcovelittlecayman.com/Contact-Info.html", "stars_osm": ""}, {"source": "geoapify", "source_id": "51b9e7548d395754c0598e393ba05b583340f00103f90173a39cf40000000092031f486f6c6964617920496e6e205265736f7274204772616e64204361796d616e", "zone_key": "ky_cayman_islands", "name": "Holiday Inn Resort Grand Cayman", "brand": "Holiday Inn", "latitude": 19.3451481, "longitude": -81.3628877, "address": "Holiday Inn Resort Grand Cayman", "city": "West Bay", "state": "", "postcode": "KY1-1206", "country": "Cayman Islands", "phone": "+1 345-949-3100", "website": "https://www.ihg.com/holidayinnresorts/hotels/us/en/grand-cayman/gcmhi/hoteldetail", "stars_osm": ""}, {"source": "geoapify", "source_id": "51b76ae8b08c5854c0593adf5fe685513340f00103f901fdb1643c01000000920310526567616c20426561636820436c7562", "zone_key": "ky_cayman_islands", "name": "Regal Beach Club", "brand": "", "latitude": 19.3184494, "longitude": -81.3835871, "address": "Regal Beach Club", "city": "George Town", "state": "", "postcode": "KY1-1202", "country": "Cayman Islands", "phone": "1-345-945-6189", "website": "https://regalbeach.com/", "stars_osm": ""}, {"source": "geoapify", "source_id": "5185251e50365754c05906e0053d2f583340f00103f901122f7e800100000092031a546865204772616e64204361796d616e69616e205265736f7274", "zone_key": "ky_cayman_islands", "name": "The Grand Caymanian Resort", "brand": "", "latitude": 19.3444708, "longitude": -81.36269, "address": "The Grand Caymanian Resort", "city": "West Bay", "state": "", "postcode": "KY1-1206", "country": "Cayman Islands", "phone": "+1 345 949 3100", "website": "https://grandcaymanian.com", "stars_osm": ""}, {"source": "geoapify", "source_id": "512c49545e615854c059fb78fc65e6563340f00103f90133f7387b020000009203355468652057657374696e204772616e64204361796d616e20536576656e204d696c65204265616368205265736f7274202620537061", "zone_key": "ky_cayman_islands", "name": "The Westin Grand Cayman Seven Mile Beach Resort & Spa", "brand": "Westin", "latitude": 19.3394531, "longitude": -81.3809429, "address": "The Westin Grand Cayman Seven Mile Beach Resort & Spa", "city": "West Bay", "state": "", "postcode": "KY1-1201", "country": "Cayman Islands", "phone": "+1 345 945 3800", "website": "https://www.marriott.com/en-us/hotels/gcmmi-the-westin-grand-cayman-seven-mile-beach-resort-and-spa/overview/", "stars_osm": ""}, {"source": "geoapify", "source_id": "5126e88aadfb5854c059dcd05d99a65c3340f00103f9017a109c09010000009203175468652043726973746f7068657220436f6c756d627573", "zone_key": "ky_cayman_islands", "name": "The Cristopher Columbus", "brand": "", "latitude": 19.3619171, "longitude": -81.3903612, "address": "The Cristopher Columbus", "city": "West Bay", "state": "", "postcode": "KY1-1108", "country": "Cayman Islands", "phone": "", "website": "https://www.christophercolumbuscondos.com/", "stars_osm": ""}, {"source": "geoapify", "source_id": "5182e3326eaa4554c05910118c6544583340f00102f9016150380a000000009203164d6f72726974742773204772616e64205265736f7274", "zone_key": "ky_cayman_islands", "name": "Morritt's Grand Resort", "brand": "", "latitude": 19.3447937, "longitude": -81.0885272, "address": "Morritt's Grand Resort", "city": "Colliers", "state": "", "postcode": "", "country": "Cayman Islands", "phone": "+1 345-947-7449", "website": "https://morritts.com/caribbean-beach-resorts/cayman-islands-tortuga-club/", "stars_osm": ""}, {"source": "geoapify", "source_id": "512015c807b94554c0598487f7fe50583340f00102f9016f50380a000000009203164d6f7272697474277320546f727475676120436c7562", "zone_key": "ky_cayman_islands", "name": "Morritt's Tortuga Club", "brand": "", "latitude": 19.3449859, "longitude": -81.0894184, "address": "Morritt's Tortuga Club", "city": "Colliers", "state": "", "postcode": "", "country": "Cayman Islands", "phone": "1-345-947-7449", "website": "", "stars_osm": ""}, {"source": "geoapify", "source_id": "5152af7eed3a5954c0597ae781608e5d3340f00102f901f55709160000000092031f53656120427265657a652c204c757875727920436f6e646f2052656e74616c", "zone_key": "ky_cayman_islands", "name": "Sea Breeze, Luxury Condo Rental", "brand": "", "latitude": 19.3654538, "longitude": -81.3942217, "address": "Sea Breeze, Luxury Condo Rental", "city": "West Bay", "state": "", "postcode": "KY1-1108", "country": "Cayman Islands", "phone": "+44 (0) 113 350 4529", "website": "http://www.seabreezecayman.com/smb_condo_spec/seabreeze.html", "stars_osm": ""}, {"source": "geoapify", "source_id": "518a750536424a54c059fc1727a0d3593340f00102f901546d46160000000092031c486f74656c204e6f72746865726e204c696768747320436f6e646f73", "zone_key": "ky_cayman_islands", "name": "Hotel Northern Lights Condos", "brand": "", "latitude": 19.3508854, "longitude": -81.1602912, "address": "Hotel Northern Lights Condos", "city": "Old Man Bay", "state": "", "postcode": "KY1-1601", "country": "Cayman Islands", "phone": "1-345-943-9000", "website": "", "stars_osm": ""}, {"source": "geoapify", "source_id": "519f64711c8d5854c0591080cd762a513340f00102f9012fa95d160000000092032f48616d70746f6e2062792048696c746f6e204772616e64204361796d616e20536576656e204d696c65204265616368", "zone_key": "ky_cayman_islands", "name": "Hampton by Hilton Grand Cayman Seven Mile Beach", "brand": "Hampton", "latitude": 19.3170542, "longitude": -81.3836127, "address": "Hampton by Hilton Grand Cayman Seven Mile Beach", "city": "George Town", "state": "", "postcode": "KY1-1202", "country": "Cayman Islands", "phone": "+13459457300", "website": "", "stars_osm": ""}, {"source": "geoapify", "source_id": "5106fa9f57975854c05912d1627770503340f00103f901daf93c2e0000000092031b4d617267617269746176696c6c65204265616368205265736f7274", "zone_key": "ky_cayman_islands", "name": "Margaritaville Beach Resort", "brand": "", "latitude": 19.3142161, "longitude": -81.3842372, "address": "Margaritaville Beach Resort", "city": "George Town", "state": "", "postcode": "KY1-1205", "country": "Cayman Islands", "phone": "", "website": "https://www.margaritavilleresortgrandcayman.com/", "stars_osm": ""}, {"source": "geoapify", "source_id": "512853de01605854c05957fa88307e593340f00102f90123e5204e00000000920306496e6469676f", "zone_key": "ky_cayman_islands", "name": "Indigo", "brand": "", "latitude": 19.3495818, "longitude": -81.3808598, "address": "Indigo", "city": "West Bay", "state": "", "postcode": "KY1-1108", "country": "Cayman Islands", "phone": "", "website": "https://grandcayman.hotelindigo.com/", "stars_osm": ""}, {"source": "geoapify", "source_id": "5127cef68dd45854c05990af644e86613340f00103f901baff9bf4000000009203214c612043617a6574746120477565737420486f757365202620436f747461676573", "zone_key": "ky_cayman_islands", "name": "La Cazetta Guest House & Cottages", "brand": "", "latitude": 19.3809556, "longitude": -81.3879733, "address": "La Cazetta Guest House & Cottages", "city": "West Bay", "state": "", "postcode": "KY1-1401", "country": "Cayman Islands", "phone": "+1 345-949-8239", "website": "http://www.lacazetta.com", "stars_osm": ""}, {"source": "geoapify", "source_id": "51cb6a1558db4f54c059fa16082eea5a3340f00103f9015d5b9cf40000000092031f4f6365616e2050617261646973652c205661636174696f6e2052656e74616c", "zone_key": "ky_cayman_islands", "name": "Ocean Paradise, Vacation Rental", "brand": "", "latitude": 19.3551358, "longitude": -81.2477627, "address": "Ocean Paradise, Vacation Rental", "city": "Drift Wood Village", "state": "", "postcode": "", "country": "Cayman Islands", "phone": "+1 345-924-9249", "website": "https://www.oceanparadisecayman.com/", "stars_osm": ""}, {"source": "geoapify", "source_id": "510b027514b15854c0597d537010ad4f3340f00103f901f17e9cf40000000092031247656f72676520546f776e2056696c6c6173", "zone_key": "ky_cayman_islands", "name": "George Town Villas", "brand": "", "latitude": 19.3112345, "longitude": -81.3858081, "address": "George Town Villas", "city": "George Town", "state": "", "postcode": "KY1-1205", "country": "Cayman Islands", "phone": "", "website": "http://www.grandcaymancondos.org/index.htm", "stars_osm": ""}, {"source": "geoapify", "source_id": "515afe32ce95ef53c0597674b091c9ba3340f00103f9017c9e9cf400000000920331546865204361796d616e20427265616b65727320436f6e646f6d696e69756d732c205661636174696f6e2052656e74616c", "zone_key": "ky_cayman_islands", "name": "The Cayman Breakers Condominiums, Vacation Rental", "brand": "", "latitude": 19.7296382, "longitude": -79.7435184, "address": "The Cayman Breakers Condominiums, Vacation Rental", "city": "", "state": "", "postcode": "KY2-2400", "country": "Cayman Islands", "phone": "+1 345-927-8826", "website": "", "stars_osm": ""}, {"source": "geoapify", "source_id": "5143e10e2fe30454c0596ada5437bca93340f00103f90171fd05020100000092031a4c6974746c65204361796d616e204265616368205265736f7274", "zone_key": "ky_cayman_islands", "name": "Little Cayman Beach Resort", "brand": "", "latitude": 19.6630282, "longitude": -80.0763662, "address": "Little Cayman Beach Resort", "city": "Blossom Village", "state": "", "postcode": "", "country": "Cayman Islands", "phone": "", "website": "https://www.littlecayman.com/", "stars_osm": ""}, {"source": "geoapify", "source_id": "514cb7eacd935854c059c27a1446b3513340f00101f9012e6712000000000092030e4c6167756e612044656c204d6172", "zone_key": "ky_cayman_islands", "name": "Laguna Del Mar", "brand": "", "latitude": 19.3191418, "longitude": -81.3840213, "address": "Laguna Del Mar", "city": "George Town", "state": "", "postcode": "KY1-1205", "country": "Cayman Islands", "phone": "", "website": "", "stars_osm": ""}, {"source": "geoapify", "source_id": "51fc0c141dee0454c059c2a5423bf1a93340f00102f901d9d390010000000092031a4c6974746c65204361796d616e204265616368205265736f7274", "zone_key": "ky_cayman_islands", "name": "Little Cayman Beach Resort", "brand": "", "latitude": 19.6638372, "longitude": -80.0770333, "address": "Little Cayman Beach Resort", "city": "Blossom Village", "state": "", "postcode": "", "country": "Cayman Islands", "phone": "", "website": "", "stars_osm": ""}, {"source": "geoapify", "source_id": "512814ecaee90454c0596839d108dba93340f00102f901dad390010000000092031a4c6974746c65204361796d616e204265616368205265736f7274", "zone_key": "ky_cayman_islands", "name": "Little Cayman Beach Resort", "brand": "Reef Divers", "latitude": 19.6634985, "longitude": -80.0767629, "address": "Little Cayman Beach Resort", "city": "Blossom Village", "state": "", "postcode": "", "country": "Cayman Islands", "phone": "", "website": "", "stars_osm": ""}, {"source": "geoapify", "source_id": "51d4e1a2ef570654c05978e57fa7c9a83340f00102f901f7d490010000000092031350726174657320506f696e74205265736f7274", "zone_key": "ky_cayman_islands", "name": "Prates Point Resort", "brand": "", "latitude": 19.659327, "longitude": -80.0991172, "address": "Prates Point Resort", "city": "Blossom Village", "state": "", "postcode": "", "country": "Cayman Islands", "phone": "", "website": "", "stars_osm": ""}, {"source": "geoapify", "source_id": "51c8ce64146e5854c059988be01797543340f00102f901957db5030000000092030b4361736120436172696265", "zone_key": "ky_cayman_islands", "name": "Casa Caribe", "brand": "", "latitude": 19.3304305, "longitude": -81.3817187, "address": "Casa Caribe", "city": "George Town", "state": "", "postcode": "KY1-1103", "country": "Cayman Islands", "phone": "", "website": "", "stars_osm": ""}, {"source": "geoapify", "source_id": "51eae51c046a5854c059de0cb945f4573340f00102f901967db50300000000920308506c616e74616e61", "zone_key": "ky_cayman_islands", "name": "Plantana", "brand": "", "latitude": 19.3435711, "longitude": -81.3814707, "address": "Plantana", "city": "West Bay", "state": "", "postcode": "KY1-1108", "country": "Cayman Islands", "phone": "", "website": "", "stars_osm": ""}, {"source": "geoapify", "source_id": "51e0117d7cc85854c05956c356a1815b3340f00102f9019c7db5030000000092030b57686974652053616e6473", "zone_key": "ky_cayman_islands", "name": "White Sands", "brand": "", "latitude": 19.3574468, "longitude": -81.3872367, "address": "White Sands", "city": "West Bay", "state": "", "postcode": "KY1-1108", "country": "Cayman Islands", "phone": "", "website": "", "stars_osm": ""}, {"source": "geoapify", "source_id": "51394be5706e5854c059cc64afb431583340f00102f9019d7db5030000000092030f54686520477265617420486f757365", "zone_key": "ky_cayman_islands", "name": "The Great House", "brand": "", "latitude": 19.3445085, "longitude": -81.3817408, "address": "The Great House", "city": "West Bay", "state": "", "postcode": "KY1-1108", "country": "Cayman Islands", "phone": "", "website": "", "stars_osm": ""}, {"source": "geoapify", "source_id": "51b42b06da615854c059ff41810f5e563340f00102f901a27db5030000000092031556696c6c6173204f66205468652047616c6c656f6e", "zone_key": "ky_cayman_islands", "name": "Villas Of The Galleon", "brand": "", "latitude": 19.3373728, "longitude": -81.3809724, "address": "Villas Of The Galleon", "city": "West Bay", "state": "", "postcode": "KY1-1201", "country": "Cayman Islands", "phone": "", "website": "", "stars_osm": ""}, {"source": "geoapify", "source_id": "51defa65a3d15854c05902b447e5cb5b3340f00102f901a37db5030000000092030d486572697461676520436c7562", "zone_key": "ky_cayman_islands", "name": "Heritage Club", "brand": "", "latitude": 19.35858, "longitude": -81.3877953, "address": "Heritage Club", "city": "West Bay", "state": "", "postcode": "KY1-1108", "country": "Cayman Islands", "phone": "", "website": "", "stars_osm": ""}, {"source": "geoapify", "source_id": "51a5256217755854c0592d16de7d8e533340f00102f901a87db503000000009203074c61636f766961", "zone_key": "ky_cayman_islands", "name": "Lacovia", "brand": "", "latitude": 19.326393, "longitude": -81.3821467, "address": "Lacovia", "city": "George Town", "state": "", "postcode": "KY1-1103", "country": "Cayman Islands", "phone": "", "website": "", "stars_osm": ""}, {"source": "geoapify", "source_id": "5195a6ff6e065954c059f4e93679ca5c3340f00102f901a97db5030000000092031854686520446973636f7665727920506f696e7420436c7562", "zone_key": "ky_cayman_islands", "name": "The Discovery Point Club", "brand": "", "latitude": 19.3624645, "longitude": -81.3910177, "address": "The Discovery Point Club", "city": "West Bay", "state": "", "postcode": "KY1-1108", "country": "Cayman Islands", "phone": "", "website": "", "stars_osm": ""}, {"source": "geoapify", "source_id": "51dcff85e5b85a54c0597050acda245f3340f00102f901ac7db5030000000092030d426f6e6e696527732041726368", "zone_key": "ky_cayman_islands", "name": "Bonnie's Arch", "brand": "", "latitude": 19.3716561, "longitude": -81.4175352, "address": "Bonnie's Arch", "city": "West Bay", "state": "", "postcode": "KY1-1401", "country": "Cayman Islands", "phone": "", "website": "", "stars_osm": ""}, {"source": "geoapify", "source_id": "51a3bcfcb56c5854c059f211582cd9543340f00102f901ad7db503000000009203125468652043617269626265616e20436c7562", "zone_key": "ky_cayman_islands", "name": "The Caribbean Club", "brand": "", "latitude": 19.3314388, "longitude": -81.3816352, "address": "The Caribbean Club", "city": "George Town", "state": "", "postcode": "KY1-1103", "country": "Cayman Islands", "phone": "", "website": "", "stars_osm": ""}, {"source": "geoapify", "source_id": "51926e6d5e6b5854c059a3812a6101553340f00102f901b37db503000000009203194772616e64204361796d616e20426561636820537569746573", "zone_key": "ky_cayman_islands", "name": "Grand Cayman Beach Suites", "brand": "", "latitude": 19.3320523, "longitude": -81.3815533, "address": "Grand Cayman Beach Suites", "city": "George Town", "state": "", "postcode": "KY1-1103", "country": "Cayman Islands", "phone": "", "website": "", "stars_osm": ""}, {"source": "geoapify", "source_id": "5184ed3c12735854c05915de1e6679583340f00102f901b47db5030000000092030a546865204176616c6f6e", "zone_key": "ky_cayman_islands", "name": "The Avalon", "brand": "", "latitude": 19.3456024, "longitude": -81.3820234, "address": "The Avalon", "city": "West Bay", "state": "", "postcode": "KY1-1108", "country": "Cayman Islands", "phone": "", "website": "", "stars_osm": ""}, {"source": "geoapify", "source_id": "519cc4b098115954c059cc95053f055d3340f00102f901b57db503000000009203095468652050616c6d73", "zone_key": "ky_cayman_islands", "name": "The Palms", "brand": "", "latitude": 19.3633613, "longitude": -81.391699, "address": "The Palms", "city": "West Bay", "state": "", "postcode": "KY1-1108", "country": "Cayman Islands", "phone": "", "website": "", "stars_osm": ""}, {"source": "geoapify", "source_id": "5155067242675854c0599c0abe0166553340f00102f901b87db5030000000092030e5468652057617465722045646765", "zone_key": "ky_cayman_islands", "name": "The Water Edge", "brand": "", "latitude": 19.3335878, "longitude": -81.3813025, "address": "The Water Edge", "city": "George Town", "state": "", "postcode": "KY1-1103", "country": "Cayman Islands", "phone": "", "website": "", "stars_osm": ""}, {"source": "geoapify", "source_id": "51d97cd516da5854c05988b16f090a5c3340f00102f901b97db5030000000092030c4c6f6e646f6e20486f757365", "zone_key": "ky_cayman_islands", "name": "London House", "brand": "", "latitude": 19.3595282, "longitude": -81.3883111, "address": "London House", "city": "West Bay", "state": "", "postcode": "KY1-1108", "country": "Cayman Islands", "phone": "", "website": "", "stars_osm": ""}, {"source": "geoapify", "source_id": "51b46b6303735854c05967bc1164f3533340f00102f901bf7db50300000000920327487961747420526567656e6379204772616e64204361796d616e20426561636820537569746573", "zone_key": "ky_cayman_islands", "name": "Hyatt Regency Grand Cayman Beach Suites", "brand": "Hyatt Regency", "latitude": 19.3279326, "longitude": -81.3820199, "address": "Hyatt Regency Grand Cayman Beach Suites", "city": "West Bay", "state": "", "postcode": "KY1-1103", "country": "Cayman Islands", "phone": "", "website": "", "stars_osm": ""}, {"source": "geoapify", "source_id": "514814a779f45854c0594c2c474f805c3340f00102f901c07db5030000000092030d54686520416e63686f72616765", "zone_key": "ky_cayman_islands", "name": "The Anchorage", "brand": "", "latitude": 19.3613329, "longitude": -81.3899216, "address": "The Anchorage", "city": "West Bay", "state": "", "postcode": "KY1-1108", "country": "Cayman Islands", "phone": "", "website": "", "stars_osm": ""}, {"source": "geoapify", "source_id": "517e9ec8a8715854c059f021b7ad1c543340f00102f901c57db5030000000092031154686520436f6c6f6e69616c20436c7562", "zone_key": "ky_cayman_islands", "name": "The Colonial Club", "brand": "", "latitude": 19.3285626, "longitude": -81.3819372, "address": "The Colonial Club", "city": "George Town", "state": "", "postcode": "KY1-1103", "country": "Cayman Islands", "phone": "", "website": "", "stars_osm": ""}, {"source": "geoapify", "source_id": "51a7165876695854c059f8f5af8e2d553340f00102f901cb7db5030000000092030f546865204265616368636f6d626572", "zone_key": "ky_cayman_islands", "name": "The Beachcomber", "brand": "", "latitude": 19.3327264, "longitude": -81.3814369, "address": "The Beachcomber", "city": "George Town", "state": "", "postcode": "KY1-1103", "country": "Cayman Islands", "phone": "", "website": "", "stars_osm": ""}, {"source": "geoapify", "source_id": "510837b3ee6a5854c059ae2242aa17553340f00102f901cd7db5030000000092030f546865204265616368636f6d626572", "zone_key": "ky_cayman_islands", "name": "The Beachcomber", "brand": "", "latitude": 19.3323924, "longitude": -81.3815266, "address": "The Beachcomber", "city": "West Bay", "state": "", "postcode": "KY1-1103", "country": "Cayman Islands", "phone": "", "website": "", "stars_osm": ""}, {"source": "geoapify", "source_id": "51787360ae655854c0599a3ed9c0b1573340f00102f901ce7db5030000000092030b5468652050696e61636c65", "zone_key": "ky_cayman_islands", "name": "The Pinacle", "brand": "", "latitude": 19.3425561, "longitude": -81.3812061, "address": "The Pinacle", "city": "West Bay", "state": "", "postcode": "KY1-1108", "country": "Cayman Islands", "phone": "", "website": "", "stars_osm": ""}, {"source": "geoapify", "source_id": "51424b4314645854c0593adf2800b5553340f00102f901d27db50300000000920310436f72616c2053746f6e6520436c7562", "zone_key": "ky_cayman_islands", "name": "Coral Stone Club", "brand": "", "latitude": 19.3347931, "longitude": -81.3811083, "address": "Coral Stone Club", "city": "West Bay", "state": "", "postcode": "KY1-1103", "country": "Cayman Islands", "phone": "", "website": "", "stars_osm": ""}, {"source": "geoapify", "source_id": "51dac9be08bd5854c0594a46cdde085b3340f00102f901d37db5030000000092030953756e646f776e6572", "zone_key": "ky_cayman_islands", "name": "Sundowner", "brand": "", "latitude": 19.3556041, "longitude": -81.3865377, "address": "Sundowner", "city": "West Bay", "state": "", "postcode": "KY1-1108", "country": "Cayman Islands", "phone": "", "website": "", "stars_osm": ""}, {"source": "geoapify", "source_id": "51080b3f65845854c05990452bd9fb593340f00102f901d47db5030000000092031e4b696d70746f6e2053656166697265205265736f727420616e6420537061", "zone_key": "ky_cayman_islands", "name": "Kimpton Seafire Resort and Spa", "brand": "Kimpton", "latitude": 19.3514992, "longitude": -81.3830808, "address": "Kimpton Seafire Resort and Spa", "city": "West Bay", "state": "", "postcode": "KY1-1108", "country": "Cayman Islands", "phone": "", "website": "", "stars_osm": ""}, {"source": "geoapify", "source_id": "5187f9b804615854c0596a52113fff553340f00102f901d97db50300000000920310546865205269747a2d4361726c746f6e", "zone_key": "ky_cayman_islands", "name": "The Ritz-Carlton", "brand": "The Ritz-Carlton", "latitude": 19.335926, "longitude": -81.3809215, "address": "The Ritz-Carlton", "city": "George Town", "state": "", "postcode": "KY1-1103", "country": "Cayman Islands", "phone": "", "website": "", "stars_osm": ""}, {"source": "geoapify", "source_id": "51e6ceb2516f5854c0596ed9b95c58543340f00102f901e07db503000000009203105468652049736c616e647320436c7562", "zone_key": "ky_cayman_islands", "name": "The Islands Club", "brand": "", "latitude": 19.3294733, "longitude": -81.3817944, "address": "The Islands Club", "city": "George Town", "state": "", "postcode": "KY1-1103", "country": "Cayman Islands", "phone": "", "website": "", "stars_osm": ""}, {"source": "geoapify", "source_id": "514239bffa8c5854c0597839525fe0513340f00102f9011521c9040000000092030c4361796d616e2053616e6473", "zone_key": "ky_cayman_islands", "name": "Cayman Sands", "brand": "", "latitude": 19.3198299, "longitude": -81.3836047, "address": "Cayman Sands", "city": "George Town", "state": "", "postcode": "KY1-1202", "country": "Cayman Islands", "phone": "", "website": "", "stars_osm": ""}, {"source": "geoapify", "source_id": "5184786e397f5854c059bff4db6fed523340f00102f9014621c9040000000092030d54686520536f7665726569676e", "zone_key": "ky_cayman_islands", "name": "The Sovereign", "brand": "", "latitude": 19.3239355, "longitude": -81.3827652, "address": "The Sovereign", "city": "George Town", "state": "", "postcode": "KY1-9006", "country": "Cayman Islands", "phone": "", "website": "", "stars_osm": ""}, {"source": "geoapify", "source_id": "516c8669777b5854c059838e9cd31b533340f00102f9017d21c9040000000092030b4361796d616e20436c7562", "zone_key": "ky_cayman_islands", "name": "Cayman Club", "brand": "", "latitude": 19.3246434, "longitude": -81.3825358, "address": "Cayman Club", "city": "George Town", "state": "", "postcode": "KY1-9006", "country": "Cayman Islands", "phone": "", "website": "", "stars_osm": ""}, {"source": "geoapify", "source_id": "519848381e905854c059d866344058513340f00102f901fd21c904000000009203224772616e64204361796d616e204d617272696f7474204265616368205265736f7274", "zone_key": "ky_cayman_islands", "name": "Grand Cayman Marriott Beach Resort", "brand": "", "latitude": 19.3177528, "longitude": -81.3837963, "address": "Grand Cayman Marriott Beach Resort", "city": "George Town", "state": "", "postcode": "KY1-1205", "country": "Cayman Islands", "phone": "", "website": "", "stars_osm": ""}, {"source": "geoapify", "source_id": "513e423d5a885854c0597228541910523340f00102f9010d22c904000000009203124361796d616e2052656566205265736f7274", "zone_key": "ky_cayman_islands", "name": "Cayman Reef Resort", "brand": "", "latitude": 19.3205582, "longitude": -81.3833223, "address": "Cayman Reef Resort", "city": "George Town", "state": "", "postcode": "KY1-1202", "country": "Cayman Islands", "phone": "", "website": "", "stars_osm": ""}, {"source": "geoapify", "source_id": "513c9d0972d74554c059d438cf5fd7583340f00102f9012f50380a0000000092031357796e6468616d2052656566205265736f7274", "zone_key": "ky_cayman_islands", "name": "Wyndham Reef Resort", "brand": "Wyndham", "latitude": 19.3470364, "longitude": -81.0912747, "address": "Wyndham Reef Resort", "city": "Colliers", "state": "", "postcode": "", "country": "Cayman Islands", "phone": "", "website": "", "stars_osm": ""}, {"source": "geoapify", "source_id": "51f6c183d8014754c05912b71bdcd64b3340f00102f901a5fd380a000000009203134561737420456e642044697665204c6f646765", "zone_key": "ky_cayman_islands", "name": "East End Dive Lodge", "brand": "", "latitude": 19.2962473, "longitude": -81.1094877, "address": "East End Dive Lodge", "city": "East End", "state": "", "postcode": "", "country": "Cayman Islands", "phone": "", "website": "", "stars_osm": ""}, {"source": "geoapify", "source_id": "519ceff8a50b4654c0595afa4c9f674e3340f00102f9016cfe380a00000000920320436f6d7061737320506f696e74204c75787572792044697665205265736f7274", "zone_key": "ky_cayman_islands", "name": "Compass Point Luxury Dive Resort", "brand": "", "latitude": 19.3062687, "longitude": -81.094461, "address": "Compass Point Luxury Dive Resort", "city": "Gun Bay", "state": "", "postcode": "", "country": "Cayman Islands", "phone": "", "website": "", "stars_osm": ""}, {"source": "geoapify", "source_id": "51316ac92c5f5854c059c76ca377cf5f3340f00102f901fe3d09160000000092030c446f6c7068696e20436f7665", "zone_key": "ky_cayman_islands", "name": "Dolphin Cove", "brand": "", "latitude": 19.3742595, "longitude": -81.380809, "address": "Dolphin Cove", "city": "West Bay", "state": "", "postcode": "KY1-1401", "country": "Cayman Islands", "phone": "", "website": "", "stars_osm": ""}, {"source": "geoapify", "source_id": "51bad9b9596e5854c05988b0ec1a2d583340f00102f9012e7809160000000092030f54686520477265617420486f757365", "zone_key": "ky_cayman_islands", "name": "The Great House", "brand": "", "latitude": 19.3444383, "longitude": -81.3817353, "address": "The Great House", "city": "West Bay", "state": "", "postcode": "KY1-1108", "country": "Cayman Islands", "phone": "", "website": "", "stars_osm": ""}, {"source": "geoapify", "source_id": "519c3a958b445854c05930dd093312563340f00102f901c3c9091600000000920310546865205269747a2d4361726c746f6e", "zone_key": "ky_cayman_islands", "name": "The Ritz-Carlton", "brand": "The Ritz-Carlton", "latitude": 19.3362152, "longitude": -81.3791837, "address": "The Ritz-Carlton", "city": "West Bay", "state": "", "postcode": "KY1-1103", "country": "Cayman Islands", "phone": "", "website": "", "stars_osm": ""}, {"source": "geoapify", "source_id": "518115bc8e7c5854c0596ca1a6d35f5a3340f00102f901314d351600000000920311466f73746572204261792056696c6c6173", "zone_key": "ky_cayman_islands", "name": "Foster Bay Villas", "brand": "", "latitude": 19.3530247, "longitude": -81.3826024, "address": "Foster Bay Villas", "city": "West Bay", "state": "", "postcode": "KY1-1108", "country": "Cayman Islands", "phone": "", "website": "", "stars_osm": ""}, {"source": "geoapify", "source_id": "51e3fb6cd8f95854c0597b8bf4f054493340f00102f9016afd45160000000092030c53756e73657420486f757365", "zone_key": "ky_cayman_islands", "name": "Sunset House", "brand": "", "latitude": 19.2864523, "longitude": -81.3902494, "address": "Sunset House", "city": "George Town", "state": "", "postcode": "KY1-9000", "country": "Cayman Islands", "phone": "", "website": "", "stars_osm": ""}, {"source": "geoapify", "source_id": "517a64bd62974e54c059f838131038593340f00102f9015f7c4616000000009203054e6f76656c", "zone_key": "ky_cayman_islands", "name": "Novel", "brand": "", "latitude": 19.3485117, "longitude": -81.2279898, "address": "Novel", "city": "Brinkleys", "state": "", "postcode": "KY1-1601", "country": "Cayman Islands", "phone": "", "website": "", "stars_osm": ""}, {"source": "geoapify", "source_id": "5122e771c3515054c0598489ac611a5c3340f00102f901367f46160000000092030954657261666c6f7261", "zone_key": "ky_cayman_islands", "name": "Teraflora", "brand": "", "latitude": 19.3597776, "longitude": -81.2549904, "address": "Teraflora", "city": "Drift Wood Village", "state": "", "postcode": "", "country": "Cayman Islands", "phone": "", "website": "", "stars_osm": ""}, {"source": "geoapify", "source_id": "5126e018a15c5154c059a42ce31c1a5f3340f00102f901b28046160000000092031854686520526574726561742061742052756d20506f696e74", "zone_key": "ky_cayman_islands", "name": "The Retreat at Rum Point", "brand": "", "latitude": 19.3714922, "longitude": -81.2712786, "address": "The Retreat at Rum Point", "city": "", "state": "", "postcode": "", "country": "Cayman Islands", "phone": "", "website": "", "stars_osm": ""}, {"source": "geoapify", "source_id": "51b208f0e7575154c059b40e58afc75e3340f00102f901228146160000000092031b49736c616e6420486f75736573206f66204361796d616e204b6169", "zone_key": "ky_cayman_islands", "name": "Island Houses of Cayman Kai", "brand": "", "latitude": 19.3702344, "longitude": -81.2709904, "address": "Island Houses of Cayman Kai", "city": "North Side", "state": "", "postcode": "", "country": "Cayman Islands", "phone": "", "website": "", "stars_osm": ""}, {"source": "geoapify", "source_id": "51926c888ee05854c0590429a131385c3340f00102f90170b456160000000092031054686520436f6d6d6f6e7765616c7468", "zone_key": "ky_cayman_islands", "name": "The Commonwealth", "brand": "", "latitude": 19.3602324, "longitude": -81.3887059, "address": "The Commonwealth", "city": "West Bay", "state": "", "postcode": "KY1-1108", "country": "Cayman Islands", "phone": "", "website": "", "stars_osm": ""}, {"source": "geoapify", "source_id": "51bb266d5dd45854c05930b73d6de85b3340f00102f901feb956160000000092030f5468652052656e61697373616e6365", "zone_key": "ky_cayman_islands", "name": "The Renaissance", "brand": "", "latitude": 19.3590153, "longitude": -81.3879617, "address": "The Renaissance", "city": "West Bay", "state": "", "postcode": "KY1-1108", "country": "Cayman Islands", "phone": "", "website": "", "stars_osm": ""}, {"source": "geoapify", "source_id": "514fff71f69c5854c0590f8e02dc2c513340f00102f90126a95d1600000000920314536f7574682042617920426561636820436c7562", "zone_key": "ky_cayman_islands", "name": "South Bay Beach Club", "brand": "", "latitude": 19.3170907, "longitude": -81.3845802, "address": "South Bay Beach Club", "city": "George Town", "state": "", "postcode": "KY1-1202", "country": "Cayman Islands", "phone": "", "website": "", "stars_osm": ""}, {"source": "geoapify", "source_id": "51b2790312600654c05986f908fbc0a83340f00102f9015728d1260000000092031350726174657320506f696e74205265736f7274", "zone_key": "ky_cayman_islands", "name": "Prates Point Resort", "brand": "", "latitude": 19.6591947, "longitude": -80.0996137, "address": "Prates Point Resort", "city": "Blossom Village", "state": "", "postcode": "", "country": "Cayman Islands", "phone": "", "website": "", "stars_osm": ""}, {"source": "geoapify", "source_id": "51d6e16ced5b0654c05908986ac0c5a83340f00102f9015828d1260000000092031350726174657320506f696e74205265736f7274", "zone_key": "ky_cayman_islands", "name": "Prates Point Resort", "brand": "", "latitude": 19.6592675, "longitude": -80.0993608, "address": "Prates Point Resort", "city": "Blossom Village", "state": "", "postcode": "", "country": "Cayman Islands", "phone": "", "website": "", "stars_osm": ""}, {"source": "geoapify", "source_id": "519215a6bd600654c05977cf6459d5a83340f00102f9015928d1260000000092031350726174657320506f696e74205265736f7274", "zone_key": "ky_cayman_islands", "name": "Prates Point Resort", "brand": "", "latitude": 19.6595055, "longitude": -80.0996546, "address": "Prates Point Resort", "city": "Blossom Village", "state": "", "postcode": "", "country": "Cayman Islands", "phone": "", "website": "", "stars_osm": ""}, {"source": "geoapify", "source_id": "51d08e5e57600654c059615bfa3bcaa83340f00102f9015f28d1260000000092031350726174657320506f696e74205265736f7274", "zone_key": "ky_cayman_islands", "name": "Prates Point Resort", "brand": "", "latitude": 19.6593358, "longitude": -80.0996302, "address": "Prates Point Resort", "city": "Blossom Village", "state": "", "postcode": "", "country": "Cayman Islands", "phone": "", "website": "", "stars_osm": ""}, {"source": "geoapify", "source_id": "51ea7a585ea85a54c059b367fda3145f3340f00103f90197b8472e0000000092030d446f6c7068696e20506f696e74", "zone_key": "ky_cayman_islands", "name": "Dolphin Point", "brand": "", "latitude": 19.3714087, "longitude": -81.4165264, "address": "Dolphin Point", "city": "West Bay", "state": "", "postcode": "KY1-1401", "country": "Cayman Islands", "phone": "", "website": "", "stars_osm": ""}, {"source": "geoapify", "source_id": "51aae001afe04f54c0593fc772056f473340f00103f901eae4502e0000000092030f547572746c65204e65737420496e6e", "zone_key": "ky_cayman_islands", "name": "Turtle Nest Inn", "brand": "", "latitude": 19.2790378, "longitude": -81.2480886, "address": "Turtle Nest Inn", "city": "Bodden Town", "state": "", "postcode": "KY1-1105", "country": "Cayman Islands", "phone": "", "website": "", "stars_osm": ""}, {"source": "geoapify", "source_id": "512dea93dce1f753c059752c3294b8af3340f00103f901f6f7d0300000000092031843617269622053616e6473204265616368205265736f7274", "zone_key": "ky_cayman_islands", "name": "Carib Sands Beach Resort", "brand": "", "latitude": 19.6864102, "longitude": -79.8731605, "address": "Carib Sands Beach Resort", "city": "West End", "state": "", "postcode": "KY-3", "country": "Cayman Islands", "phone": "", "website": "", "stars_osm": ""}, {"source": "geoapify", "source_id": "510743780feb0454c0592cd4c3e0f5a93340f00102f901b8f0d6360000000092031a4c6974746c65204361796d616e204265616368205265736f7274", "zone_key": "ky_cayman_islands", "name": "Little Cayman Beach Resort", "brand": "", "latitude": 19.6639081, "longitude": -80.0768469, "address": "Little Cayman Beach Resort", "city": "Blossom Village", "state": "", "postcode": "", "country": "Cayman Islands", "phone": "", "website": "", "stars_osm": ""}, {"source": "geoapify", "source_id": "51dae5b0ae675854c059151bf5f285593340f00102f90125e5204e00000000920311496e6469676f20506f6f6c202620426172", "zone_key": "ky_cayman_islands", "name": "Indigo Pool & Bar", "brand": "", "latitude": 19.3497002, "longitude": -81.3813283, "address": "Indigo Pool & Bar", "city": "West Bay", "state": "", "postcode": "KY1-1108", "country": "Cayman Islands", "phone": "", "website": "", "stars_osm": ""}, {"source": "geoapify", "source_id": "516e4f4ffd700454c0597a52cdab84aa3340f00102f9016645905000000000920313536f75746865726e2043726f737320436c7562", "zone_key": "ky_cayman_islands", "name": "Southern Cross Club", "brand": "", "latitude": 19.6660869, "longitude": -80.0693963, "address": "Southern Cross Club", "city": "Blossom Village", "state": "", "postcode": "", "country": "Cayman Islands", "phone": "", "website": "", "stars_osm": ""}, {"source": "geoapify", "source_id": "5113e17030e54554c059549ace30ff583340f00103f90106ebcbf50000000092031357796e6468616d2052656566205265736f7274", "zone_key": "ky_cayman_islands", "name": "Wyndham Reef Resort", "brand": "Wyndham", "latitude": 19.3476439, "longitude": -81.0921136, "address": "Wyndham Reef Resort", "city": "Colliers", "state": "", "postcode": "", "country": "Cayman Islands", "phone": "", "website": "", "stars_osm": ""}, {"source": "geoapify", "source_id": "51be2e1e39adf353c059930a5adbb9b53340f00103f90189f60b31010000009203124c6520536f6c65696c2064274f72202d2031", "zone_key": "ky_cayman_islands", "name": "Le Soleil d'Or - 1", "brand": "", "latitude": 19.7098672, "longitude": -79.8074477, "address": "Le Soleil d'Or - 1", "city": "Stake Bay", "state": "", "postcode": "KY2-2400", "country": "Cayman Islands", "phone": "", "website": "", "stars_osm": ""}, {"source": "geoapify", "source_id": "514837c2a2a2f353c059aa50513e98b53340f00103f90111fb0b31010000009203124c6520536f6c65696c2064274f72202d2032", "zone_key": "ky_cayman_islands", "name": "Le Soleil d'Or - 2", "brand": "", "latitude": 19.7093543, "longitude": -79.8068015, "address": "Le Soleil d'Or - 2", "city": "West End", "state": "", "postcode": "KY2-2400", "country": "Cayman Islands", "phone": "", "website": "", "stars_osm": ""}, {"source": "geoapify", "source_id": "5109bdfe24bef253c059586e787984b63340f00103f90134190d31010000009203114272616320486176656e2056696c6c6173", "zone_key": "ky_cayman_islands", "name": "Brac Haven Villas", "brand": "", "latitude": 19.7129589, "longitude": -79.7928555, "address": "Brac Haven Villas", "city": "", "state": "", "postcode": "KY2-2400", "country": "Cayman Islands", "phone": "", "website": "", "stars_osm": ""}, {"source": "geoapify", "source_id": "5151e1085229ff53c059b3417e7fdeb53340f00103f901ccad1231010000009203085069612048616c6c", "zone_key": "ky_cayman_islands", "name": "Pia Hall", "brand": "", "latitude": 19.7104263, "longitude": -79.986897, "address": "Pia Hall", "city": "The Bluff", "state": "", "postcode": "", "country": "Cayman Islands", "phone": "", "website": "", "stars_osm": ""}, {"source": "geoapify", "source_id": "5181aca7565f0554c05990288017b6a83340f00103f901f25f4d310100000092030f50617261646973652056696c6c6173", "zone_key": "ky_cayman_islands", "name": "Paradise Villas", "brand": "", "latitude": 19.6590285, "longitude": -80.083944, "address": "Paradise Villas", "city": "Blossom Village", "state": "", "postcode": "", "country": "Cayman Islands", "phone": "", "website": "", "stars_osm": ""}, {"source": "geoapify", "source_id": "51a8c53b1bcd0454c0596a91cce9fca93340f00103f901c9734d310100000092031954686520436c7562206174204c6974746c65204361796d616e", "zone_key": "ky_cayman_islands", "name": "The Club at Little Cayman", "brand": "", "latitude": 19.6640154, "longitude": -80.0750187, "address": "The Club at Little Cayman", "city": "Blossom Village", "state": "", "postcode": "", "country": "Cayman Islands", "phone": "", "website": "", "stars_osm": ""}, {"source": "geoapify", "source_id": "51ef27637c980454c059baab53e45aaa3340f00103f90108774d3101000000920311436f6e636820436c756220436f6e646f73", "zone_key": "ky_cayman_islands", "name": "Conch Club Condos", "brand": "", "latitude": 19.6654494, "longitude": -80.071807, "address": "Conch Club Condos", "city": "Blossom Village", "state": "", "postcode": "", "country": "Cayman Islands", "phone": "", "website": "", "stars_osm": ""}, {"source": "geoapify", "source_id": "5110131e7ec85254c059d22d7d478d473340f00103f901c08a063e0100000092030c53686569727920486f757365", "zone_key": "ky_cayman_islands", "name": "Sheiry House", "brand": "", "latitude": 19.2794995, "longitude": -81.2934871, "address": "Sheiry House", "city": "George Town", "state": "", "postcode": "KY1-1105", "country": "Cayman Islands", "phone": "", "website": "", "stars_osm": ""}]}
