{"cached_at": "2026-04-07T17:41:34.633788+00:00", "zone_key": "pr_puerto_rico", "count": 145, "hotels": [{"source": "geoapify", "source_id": "51a54c6a6843c950c05940310cafc9373240f00102f9011cc5130c0000000092031b456469666963696f2041e28093486f74656c20436f6c656769616c", "zone_key": "pr_puerto_rico", "name": "Edificio A\u2013Hotel Colegial", "brand": "", "latitude": 18.2179212, "longitude": -67.1447392, "address": "Building A\u2013Hotel Colegial", "city": "Mayag\u00fcez", "state": "Puerto Rico", "postcode": "00682", "country": "United States", "phone": "+1-787-832-4040 x3891; +1-787-832-4040 x3596", "website": "https://web.archive.org/web/20160109212031/http://hotelcolegial.com/", "stars_osm": ""}, {"source": "geoapify", "source_id": "510592b47a848450c05924becfc0c8743240f00102f9017290a7100000000092032b53616e204a75616e204d617272696f7474205265736f72742026205374656c6c6172697320436173696e6f", "zone_key": "pr_puerto_rico", "name": "San Juan Marriott Resort & Stellaris Casino", "brand": "Marriott", "latitude": 18.4561882, "longitude": -66.0705859, "address": "San Juan Marriott Resort & Stellaris Casino", "city": "San Juan", "state": "Puerto Rico", "postcode": "00907", "country": "United States", "phone": "+1 787-722-7000", "website": "https://www.marriott.com/hotels/travel/sjupr-san-juan-marriott-resort-and-stellaris-casino/", "stars_osm": ""}, {"source": "geoapify", "source_id": "5187fdf9111a8450c0590c27efa133713240f00103f9011682f9180100000092030f486f74656c2053616e204a6f726765", "zone_key": "pr_puerto_rico", "name": "Hotel San Jorge", "brand": "", "latitude": 18.4421941, "longitude": -66.0640912, "address": "Hotel San Jorge", "city": "San Juan", "state": "Puerto Rico", "postcode": "00909", "country": "United States", "phone": "+1-787-727-1223", "website": "https://www.hotelsanjorgepr.com/", "stars_osm": ""}, {"source": "geoapify", "source_id": "5147dc0830d1c250c0592bde7fc6e0143240f00103f90185d2a31d01000000920315486f74656c20792050617261646f72204f61736973", "zone_key": "pr_puerto_rico", "name": "Hotel y Parador Oasis", "brand": "", "latitude": 18.0815548, "longitude": -67.0440178, "address": "Hotel y Parador Oasis", "city": "San Germ\u00e1n", "state": "Puerto Rico", "postcode": "00683", "country": "United States", "phone": "+1-787-892-1175", "website": "http://paradoroasissangerman.com", "stars_osm": ""}, {"source": "geoapify", "source_id": "51c62f61d9f18450c05964e8a75192753240f00103f9017fa23b5901000000920312436f6e6461646f204f6365616e20436c7562", "zone_key": "pr_puerto_rico", "name": "Condado Ocean Club", "brand": "", "latitude": 18.4592639, "longitude": -66.0772613, "address": "Condado Ocean Club", "city": "San Juan", "state": "Puerto Rico", "postcode": "00907", "country": "United States", "phone": "+1 787-625-6000", "website": "https://www.condadooceanclub.com/", "stars_osm": ""}, {"source": "geoapify", "source_id": "51e20b6d2b448150c0593e436f0a75713240f00102f901b5fa2b050000000092031a54686520526f79616c20536f6e657374612053616e204a75616e", "zone_key": "pr_puerto_rico", "name": "The Royal Sonesta San Juan", "brand": "Sonesta", "latitude": 18.4431922, "longitude": -66.0197857, "address": "The Royal Sonesta San Juan", "city": "Carolina", "state": "Puerto Rico", "postcode": "00979", "country": "United States", "phone": "+1 787-791-6100", "website": "https://www.sonesta.com/royal-sonesta/pr/carolina/royal-sonesta-san-juan/", "stars_osm": ""}, {"source": "geoapify", "source_id": "5189fa323c798550c0597d01172296763240f00102f9019ceab70b0000000092030d4361726962652048696c746f6e", "zone_key": "pr_puerto_rico", "name": "Caribe Hilton", "brand": "Hilton", "latitude": 18.4632284, "longitude": -66.0855246, "address": "Caribe Hilton", "city": "San Juan", "state": "Puerto Rico", "postcode": "00901", "country": "United States", "phone": "", "website": "https://caribehilton.com/", "stars_osm": ""}, {"source": "geoapify", "source_id": "51cdd0e6822f8750c0595a173f95d3763240f00102f901b61db80b00000000920327486f74656c2052756d62616f2c2041205472696275746520506f7274666f6c696f20486f74656c", "zone_key": "pr_puerto_rico", "name": "Hotel Rumbao, A Tribute Portfolio Hotel", "brand": "Tribute Portfolio", "latitude": 18.464166, "longitude": -66.1122749, "address": "Hotel Rumbao, A Tribute Portfolio Hotel", "city": "San Juan", "state": "Puerto Rico", "postcode": "00901", "country": "United States", "phone": "+1 787 721 5100", "website": "https://www.marriott.com/en-us/hotels/sjutx-hotel-rumbao-a-tribute-portfolio-hotel/overview/", "stars_osm": ""}, {"source": "geoapify", "source_id": "51b6442678bb8450c05902d8813111753240f00102f9011671a810000000009203254c6120436f6e6368612052656e61697373616e63652053616e204a75616e205265736f7274", "zone_key": "pr_puerto_rico", "name": "La Concha Renaissance San Juan Resort", "brand": "Renaissance", "latitude": 18.4572936, "longitude": -66.0739422, "address": "La Concha Renaissance San Juan Resort", "city": "San Juan", "state": "Puerto Rico", "postcode": "00907", "country": "United States", "phone": "+1 787-721-8500", "website": "http://laconcharesort.com", "stars_osm": ""}, {"source": "geoapify", "source_id": "51302c5498758550c059a6544b9ddb743240f00102f90149229c110000000092030d486f74656c204d6972616d6172", "zone_key": "pr_puerto_rico", "name": "Hotel Miramar", "brand": "", "latitude": 18.4564761, "longitude": -66.0853024, "address": "Hotel Miramar", "city": "San Juan", "state": "Puerto Rico", "postcode": "00907", "country": "United States", "phone": "+1 787 977 1000", "website": "https://hotelmiramarpr.com/", "stars_osm": ""}, {"source": "geoapify", "source_id": "510ddb2bdba48550c059385c616e9c743240f00102f901d2f39c1200000000920314487961747420506c6163652053616e204a75616e", "zone_key": "pr_puerto_rico", "name": "Hyatt Place San Juan", "brand": "Hyatt Place", "latitude": 18.455512, "longitude": -66.088187, "address": "Hyatt Place San Juan", "city": "San Juan", "state": "Puerto Rico", "postcode": "00907", "country": "United States", "phone": "+1 787 721 3000", "website": "https://www.hyatt.com/en-US/hotel/puerto-rico/hyatt-place-san-juan/sjuzs", "stars_osm": ""}, {"source": "geoapify", "source_id": "51d44bd5c49e8550c05962e54880e4743240f00102f9014c91ba1400000000920314487961747420486f7573652053616e204a75616e", "zone_key": "pr_puerto_rico", "name": "Hyatt House San Juan", "brand": "Hyatt House", "latitude": 18.4566117, "longitude": -66.0878155, "address": "Hyatt House San Juan", "city": "San Juan", "state": "Puerto Rico", "postcode": "00907", "country": "United States", "phone": "+1 787 977 5000", "website": "https://www.hyatt.com/en-US/hotel/puerto-rico/hyatt-house-san-juan/sjuxs", "stars_osm": ""}, {"source": "geoapify", "source_id": "511ec1eabeb28350c05918d6fd21ec733240f00102f901a5da65150000000092030754726f70696361", "zone_key": "pr_puerto_rico", "name": "Tropica", "brand": "", "latitude": 18.4528219, "longitude": -66.0577848, "address": "Tropica", "city": "San Juan", "state": "Puerto Rico", "postcode": "00911", "country": "United States", "phone": "+1-787-728-8119", "website": "https://tropicapr.com/", "stars_osm": ""}, {"source": "geoapify", "source_id": "51a3f5a6622dc350c05984f076be44f93140f00102f9017d7e6a170000000092031650617261646f722056696c6c61205061726775657261", "zone_key": "pr_puerto_rico", "name": "Parador Villa Parguera", "brand": "", "latitude": 17.9737052, "longitude": -67.0496451, "address": "Parador Villa Parguera", "city": "", "state": "Puerto Rico", "postcode": "", "country": "United States", "phone": "+1 787-899-7777", "website": "https://www.villaparguerahotel.com/", "stars_osm": ""}, {"source": "geoapify", "source_id": "51eeb06e4cfc7250c059e9dc42a89c163240f00102f9012453351b0000000092032d57796e6468616d2050616c6d617320426561636820616e6420476f6c6620426f757469717565205265736f7274", "zone_key": "pr_puerto_rico", "name": "Wyndham Palmas Beach and Golf Boutique Resort", "brand": "Wyndham", "latitude": 18.0883279, "longitude": -65.7966491, "address": "Wyndham Palmas Beach and Golf Boutique Resort", "city": "", "state": "Puerto Rico", "postcode": "00791", "country": "United States", "phone": "+17872477979", "website": "https://www.wyndhamhotels.com/wyndham/humacao-puerto-rico/wyndham-palmas-beach-and-golf-boutique-resort/overview", "stars_osm": ""}, {"source": "geoapify", "source_id": "51809bc6b706c350c059510c5a935df93140f00102f90159b4411c000000009203084e617574696c7573", "zone_key": "pr_puerto_rico", "name": "Nautilus", "brand": "", "latitude": 17.9740841, "longitude": -67.047285, "address": "Nautilus", "city": "", "state": "Puerto Rico", "postcode": "", "country": "United States", "phone": "+1 787-899-4565", "website": "http://www.laparguerahotelnautilus.com/", "stars_osm": ""}, {"source": "geoapify", "source_id": "51bc6369262dc350c059e6c5f8205ff93140f00102f9012fc6d61c00000000920314506172677565726120506c617a6120486f74656c", "zone_key": "pr_puerto_rico", "name": "Parguera Plaza Hotel", "brand": "", "latitude": 17.9741078, "longitude": -67.0496307, "address": "Parguera Plaza Hotel", "city": "", "state": "Puerto Rico", "postcode": "", "country": "United States", "phone": "+17879204275", "website": "https://www.pargueraplaza.com/", "stars_osm": ""}, {"source": "geoapify", "source_id": "517cf8fa5ad37250c05999328ce5f16a3240f00102f90127db451f0000000092031b487961747420526567656e6379204772616e642052657365727665", "zone_key": "pr_puerto_rico", "name": "Hyatt Regency Grand Reserve", "brand": "Hyatt Regency", "latitude": 18.4177536, "longitude": -65.7941501, "address": "Hyatt Regency Grand Reserve", "city": "", "state": "Puerto Rico", "postcode": "00745", "country": "United States", "phone": "+1 787 657 1234", "website": "https://www.hyatt.com/en-US/hotel/puerto-rico/hyatt-regency-grand-reserve-puerto-rico/sjurc", "stars_osm": ""}, {"source": "geoapify", "source_id": "5128f37314777550c05942cd4209330a3240f00102f901249d7b1f0000000092031850617261646f722050616c6d6173206465204c7563c3ad61", "zone_key": "pr_puerto_rico", "name": "Parador Palmas de Luc\u00eda", "brand": "", "latitude": 18.0398413, "longitude": -65.8353931, "address": "Parador Palmas de Luc\u00eda", "city": "", "state": "Puerto Rico", "postcode": "00767", "country": "United States", "phone": "+1 787-893-4423", "website": "https://www.tropicalinnspr.com/", "stars_osm": ""}, {"source": "geoapify", "source_id": "51d7951061148150c059ced79b3116713240f00102f901db8f6c350000000092032d5265736964656e636520496e6e206279204d617272696f74742053616e204a75616e2049736c61205665726465", "zone_key": "pr_puerto_rico", "name": "Residence Inn by Marriott San Juan Isla Verde", "brand": "Residence Inn", "latitude": 18.4417449, "longitude": -66.0168688, "address": "Residence Inn by Marriott San Juan Isla Verde", "city": "Carolina", "state": "Puerto Rico", "postcode": "00979", "country": "United States", "phone": "+1-787-961-1155", "website": "https://www.marriott.com/en-us/hotels/sjurv-residence-inn-san-juan-isla-verde/overview/", "stars_osm": ""}, {"source": "geoapify", "source_id": "5119051c9d4eb850c05991ef6317fbf33140f00103f901c1a4bf3b00000000920317436f70616d6172696e61204265616368205265736f7274", "zone_key": "pr_puerto_rico", "name": "Copamarina Beach Resort", "brand": "Independent", "latitude": 17.9530501, "longitude": -66.8797982, "address": "Copamarina Beach Resort", "city": "", "state": "Puerto Rico", "postcode": "00653", "country": "United States", "phone": "+1 787-821-0505", "website": "https://www.copamarina.com/", "stars_osm": ""}, {"source": "geoapify", "source_id": "519a92989db86e50c059c85ca14a72613240f00102f9014b27bc4000000000920324466169726669656c64206279204d617272696f7474204c757175696c6c6f204265616368", "zone_key": "pr_puerto_rico", "name": "Fairfield by Marriott Luquillo Beach", "brand": "Fairfield Inn", "latitude": 18.3806502, "longitude": -65.730018, "address": "Fairfield by Marriott Luquillo Beach", "city": "Luquillo", "state": "Puerto Rico", "postcode": "00773", "country": "United States", "phone": "+1 787-657-0000", "website": "https://www.marriott.com/en-us/hotels/sjulu-fairfield-luquillo-beach/overview/?scid=f2ae0541-1279-4f24-b197-a979c79310b0", "stars_osm": ""}, {"source": "geoapify", "source_id": "5194d11275308150c0596f9602eb82713240f00103f901194d62430000000092031a466169726d6f6e7420456c2053616e204a75616e20486f74656c", "zone_key": "pr_puerto_rico", "name": "Fairmont El San Juan Hotel", "brand": "Fairmont", "latitude": 18.4434039, "longitude": -66.0185826, "address": "Fairmont El San Juan Hotel", "city": "Carolina", "state": "Puerto Rico", "postcode": "00979", "country": "United States", "phone": "+1 787-791-1000", "website": "https://www.elsanjuanhotel.com/", "stars_osm": ""}, {"source": "geoapify", "source_id": "517a55f78c479350c0594463546bab793240f00102f90161a5af4300000000920324446f7261646f2042656163682c2061205269747a2d4361726c746f6e2052657365727665", "zone_key": "pr_puerto_rico", "name": "Dorado Beach, a Ritz-Carlton Reserve", "brand": "The Ritz-Carlton", "latitude": 18.4752719, "longitude": -66.3012421, "address": "Dorado Beach, a Ritz-Carlton Reserve", "city": "", "state": "Puerto Rico", "postcode": "00646", "country": "United States", "phone": "+1-787-626-1100", "website": "https://www.ritzcarlton.com/en/hotels/sjudo-dorado-beach-a-ritz-carlton-reserve/overview/", "stars_osm": ""}, {"source": "geoapify", "source_id": "51cbc1ac1d3e9350c059ba676965b1793240f00102f90162a5af4300000000920324446f7261646f2042656163682c2061205269747a2d4361726c746f6e2052657365727665", "zone_key": "pr_puerto_rico", "name": "Dorado Beach, a Ritz-Carlton Reserve", "brand": "The Ritz-Carlton", "latitude": 18.4753631, "longitude": -66.3006663, "address": "Dorado Beach, a Ritz-Carlton Reserve", "city": "", "state": "Puerto Rico", "postcode": "00646", "country": "United States", "phone": "+1-787-626-1100", "website": "https://www.ritzcarlton.com/en/hotels/sjudo-dorado-beach-a-ritz-carlton-reserve/overview/", "stars_osm": ""}, {"source": "geoapify", "source_id": "51225d7d8601b350c0595fd1af7b2b083240f00103f901de3daf6300000000920311436f73746120426168696120486f74656c", "zone_key": "pr_puerto_rico", "name": "Costa Bahia Hotel", "brand": "", "latitude": 18.0319135, "longitude": -66.7969681, "address": "Costa Bahia Hotel", "city": "Guayanilla", "state": "Puerto Rico", "postcode": "00656", "country": "United States", "phone": "+1-787-835-3335", "website": "https://www.costabahiahotel.com/", "stars_osm": ""}, {"source": "geoapify", "source_id": "51aa1a29006b8150c059cbe1e502e1703240f00103f901f732ae650000000092032148796174742043656e747269632053616e204a75616e2049736c61205665726465", "zone_key": "pr_puerto_rico", "name": "Hyatt Centric San Juan Isla Verde", "brand": "Hyatt Centric", "latitude": 18.4409334, "longitude": -66.0221558, "address": "Hyatt Centric San Juan Isla Verde", "city": "Carolina", "state": "Puerto Rico", "postcode": "00979", "country": "United States", "phone": "+1 787 253 9000", "website": "https://www.hyatt.com/hyatt-centric/sjuct-hyatt-centric-san-juan-isla-verde", "stars_osm": ""}, {"source": "geoapify", "source_id": "51b8f64f81ddc250c059683c692c50f93140f00103f901fedffb800000000092030e547572746c652042617920496e6e", "zone_key": "pr_puerto_rico", "name": "Turtle Bay Inn", "brand": "", "latitude": 17.9738796, "longitude": -67.0447696, "address": "Turtle Bay Inn", "city": "", "state": "Puerto Rico", "postcode": "00667", "country": "United States", "phone": "+1-787-899-6633", "website": "https://www.turtlebayinn.com/", "stars_osm": ""}, {"source": "geoapify", "source_id": "518bfdc0b0d7a950c059811e0f3b42723240f00103f90107dfd9b80000000092030b4172656369626f20496e6e", "zone_key": "pr_puerto_rico", "name": "Arecibo Inn", "brand": "", "latitude": 18.4463231, "longitude": -66.6537897, "address": "Arecibo Inn", "city": "Arecibo", "state": "Puerto Rico", "postcode": "00612", "country": "United States", "phone": "+1 787-881-4134", "website": "www.areciboinn.com", "stars_osm": ""}, {"source": "geoapify", "source_id": "517b8967bf248450c059735fc16092713240f00103f901d570c1bb00000000920317546865204c6f6f6b696e6720476c61737320486f74656c", "zone_key": "pr_puerto_rico", "name": "The Looking Glass Hotel", "brand": "", "latitude": 18.4436398, "longitude": -66.0647429, "address": "The Looking Glass Hotel", "city": "San Juan", "state": "Puerto Rico", "postcode": "00909", "country": "United States", "phone": "+17872014233", "website": "https://lookingglasshotel.com/", "stars_osm": ""}, {"source": "geoapify", "source_id": "515b0b0e8a41a750c0592fcdcfec04033240f00103f901066277c0000000009203144d656c69c3a12043656e7475727920486f74656c", "zone_key": "pr_puerto_rico", "name": "Meli\u00e1 Century Hotel", "brand": "Meli\u00e1", "latitude": 18.0117939, "longitude": -66.6133752, "address": "Meli\u00e1 Century Hotel", "city": "Ponce", "state": "Puerto Rico", "postcode": "00730", "country": "United States", "phone": "", "website": "https://meliacenturyhotel.com/", "stars_osm": ""}, {"source": "geoapify", "source_id": "51fda7d19a55a750c05915d594e81b033240f00103f901086277c00000000092031a506f6e636520506c617a6120486f74656c202620436173696e6f", "zone_key": "pr_puerto_rico", "name": "Ponce Plaza Hotel & Casino", "brand": "", "latitude": 18.0121446, "longitude": -66.6145999, "address": "Ponce Plaza Hotel & Casino", "city": "Ponce", "state": "Puerto Rico", "postcode": "00730", "country": "United States", "phone": "", "website": "https://www.ponceplazahotelandcasino.com/", "stars_osm": ""}, {"source": "geoapify", "source_id": "519d99057f648550c05946d7cd94d6733240f00103f9014864c11801000000920314436971616c61204c757875727920537569746573", "zone_key": "pr_puerto_rico", "name": "Ciqala Luxury Suites", "brand": "", "latitude": 18.452493, "longitude": -66.0842588, "address": "Ciqala Luxury Suites", "city": "San Juan", "state": "Puerto Rico", "postcode": "00907", "country": "United States", "phone": "+1 787-998-1176; +1 787-985-7044", "website": "https://ciqalasuites.com/", "stars_osm": ""}, {"source": "geoapify", "source_id": "5123241cc4187550c059e7240edbbb5b3240f00103f9013eaadf180100000092031648616369656e64612053696573746120416c65677265", "zone_key": "pr_puerto_rico", "name": "Hacienda Siesta Alegre", "brand": "", "latitude": 18.3583352, "longitude": -65.8296366, "address": "Hacienda Siesta Alegre", "city": "R\u00edo Grande", "state": "Puerto Rico", "postcode": "00745", "country": "United States", "phone": "+1 787 887 7500", "website": "https://www.haciendasiestaalegre.com/", "stars_osm": ""}, {"source": "geoapify", "source_id": "5177e569af748550c059936f1debe2743240f00103f901b8ecf9180100000092030d486f74656c204d6972616d6172", "zone_key": "pr_puerto_rico", "name": "Hotel Miramar", "brand": "", "latitude": 18.4565875, "longitude": -66.0852469, "address": "Hotel Miramar", "city": "San Juan", "state": "Puerto Rico", "postcode": "00907", "country": "United States", "phone": "+1 787-977-1000", "website": "https://www.hotelmiramarpr.com/", "stars_osm": ""}, {"source": "geoapify", "source_id": "510f0f61fcb48450c059b33c69fa36743240f00103f90124cb881d0100000092030e546865205761766520486f74656c", "zone_key": "pr_puerto_rico", "name": "The Wave Hotel", "brand": "", "latitude": 18.4539639, "longitude": -66.0735465, "address": "The Wave Hotel", "city": "San Juan", "state": "Puerto Rico", "postcode": "00907", "country": "United States", "phone": "+1-787-721-9010", "website": "https://www.thewavehotel.com/", "stars_osm": ""}, {"source": "geoapify", "source_id": "51706bc141318550c0591fdba7a1fc753240f00103f9013c51df240100000092031854686520436f6e6461646f20506c617a612048696c746f6e", "zone_key": "pr_puerto_rico", "name": "The Condado Plaza Hilton", "brand": "Hilton", "latitude": 18.4608861, "longitude": -66.0811314, "address": "The Condado Plaza Hilton", "city": "San Juan", "state": "Puerto Rico", "postcode": "00907", "country": "United States", "phone": "", "website": "https://www.condadoplaza.com/", "stars_osm": ""}, {"source": "geoapify", "source_id": "518eb0a888d38450c059c3dbd915e9743240f00103f901cd92fc2401000000920318456c2043616e6172696f20627920746865204c61676f6f6e", "zone_key": "pr_puerto_rico", "name": "El Canario by the Lagoon", "brand": "", "latitude": 18.4566816, "longitude": -66.075411, "address": "El Canario by the Lagoon", "city": "San Juan", "state": "Puerto Rico", "postcode": "00907", "country": "United States", "phone": "+1-787-722-5058;+1-800-533-2649", "website": "https://www.canariolagoonhotel.com/", "stars_osm": ""}, {"source": "geoapify", "source_id": "511a2e724fd78450c05903c8874d09753240f00103f901eacffc2401000000920313486f6c6964617920496e6e2045787072657373", "zone_key": "pr_puerto_rico", "name": "Holiday Inn Express", "brand": "Holiday Inn Express", "latitude": 18.4571732, "longitude": -66.0756415, "address": "Holiday Inn Express", "city": "San Juan", "state": "Puerto Rico", "postcode": "00907", "country": "United States", "phone": "+1-787-724-4160", "website": "https://www.hiexpress.com/sanjuanpr", "stars_osm": ""}, {"source": "geoapify", "source_id": "51171230babc8450c05939690a1115753240f00103f901a2a2fd240100000092030f4c6120436f6e63686120486f74656c", "zone_key": "pr_puerto_rico", "name": "La Concha Hotel", "brand": "", "latitude": 18.4573527, "longitude": -66.074019, "address": "La Concha Hotel", "city": "San Juan", "state": "Puerto Rico", "postcode": "00907", "country": "United States", "phone": "+1-787-721-7500", "website": "https://www.laconcharesort.com/", "stars_osm": ""}, {"source": "geoapify", "source_id": "5154d33fd2718350c059e0b82fcac7733240f00103f901f89aaf2501000000920309447265616d20496e6e", "zone_key": "pr_puerto_rico", "name": "Dream Inn", "brand": "", "latitude": 18.4522673, "longitude": -66.0538221, "address": "Dream Inn", "city": "San Juan", "state": "Puerto Rico", "postcode": "00911", "country": "United States", "phone": "+1-787-200-6340", "website": "https://www.dreaminnpr.com/", "stars_osm": ""}, {"source": "geoapify", "source_id": "516f6cd15d6d8350c0596c4f3fc10f743240f00103f90162c74e2601000000920310447265616d6361746368657220496e6e", "zone_key": "pr_puerto_rico", "name": "Dreamcatcher Inn", "brand": "", "latitude": 18.4533654, "longitude": -66.0535502, "address": "Dreamcatcher Inn", "city": "San Juan", "state": "Puerto Rico", "postcode": "00911", "country": "United States", "phone": "+1-787-455-8259", "website": "www.dreamcatcherpr.com", "stars_osm": ""}, {"source": "geoapify", "source_id": "510606b584a18450c059a333537303753240f00103f9017369792601000000920309546865205472797374", "zone_key": "pr_puerto_rico", "name": "The Tryst", "brand": "", "latitude": 18.4570839, "longitude": -66.0723583, "address": "The Tryst", "city": "San Juan", "state": "Puerto Rico", "postcode": "00907", "country": "United States", "phone": "+1-787-965-5239", "website": "https://hoteltryst.com/", "stars_osm": ""}, {"source": "geoapify", "source_id": "518ef74fdc968450c05986effdcba4743240f00103f90197059c280100000092031e42657374205765737465726e20506c757320436f6e6461646f2050616c6d", "zone_key": "pr_puerto_rico", "name": "Best Western Plus Condado Palm", "brand": "Best Western Plus", "latitude": 18.4556396, "longitude": -66.0717078, "address": "Best Western Plus Condado Palm", "city": "San Juan", "state": "Puerto Rico", "postcode": "00907", "country": "United States", "phone": "+1-787-721-9500", "website": "condadopalm.com", "stars_osm": ""}, {"source": "geoapify", "source_id": "51e40dd539ab8450c05933c9c817a3743240f00103f90146369c2801000000920314436f72616c205072696e6365737320486f74656c", "zone_key": "pr_puerto_rico", "name": "Coral Princess Hotel", "brand": "", "latitude": 18.4556136, "longitude": -66.0729508, "address": "Coral Princess Hotel", "city": "San Juan", "state": "Puerto Rico", "postcode": "00907", "country": "United States", "phone": "+1-787-977-7700", "website": "https://www.coralpr.com/", "stars_osm": ""}, {"source": "geoapify", "source_id": "51523c7837e08450c0597af509032a753240f00103f901b8559c28010000009203144f6c69766520426f75746971756520486f74656c", "zone_key": "pr_puerto_rico", "name": "Olive Boutique Hotel", "brand": "", "latitude": 18.4576723, "longitude": -66.0761851, "address": "Olive Boutique Hotel", "city": "San Juan", "state": "Puerto Rico", "postcode": "00907", "country": "United States", "phone": "+1-787-705-9994", "website": "https://oliveboutiquehotel.com/", "stars_osm": ""}, {"source": "geoapify", "source_id": "5194b42ca9248450c05913b0f8b072733240f00103f9011642102901000000920323446f75626c65547265652062792048696c746f6e20486f74656c2053616e204a75616e", "zone_key": "pr_puerto_rico", "name": "DoubleTree by Hilton Hotel San Juan", "brand": "DoubleTree", "latitude": 18.4509688, "longitude": -66.0647376, "address": "DoubleTree by Hilton Hotel San Juan", "city": "San Juan", "state": "Puerto Rico", "postcode": "00914", "country": "United States", "phone": "+1-787-721-1200", "website": "https://www.sanjuandoubletree.com/photo-en.html", "stars_osm": ""}, {"source": "geoapify", "source_id": "51c584e2d8448550c0597ad1b207a4743240f00103f901881275560100000092031a436f757274796172642053616e204a75616e204d6972616d6172", "zone_key": "pr_puerto_rico", "name": "Courtyard San Juan Miramar", "brand": "Courtyard", "latitude": 18.4556279, "longitude": -66.0823271, "address": "Courtyard San Juan Miramar", "city": "San Juan", "state": "Puerto Rico", "postcode": "00907", "country": "United States", "phone": "+1 787-721-7400", "website": "https://www.marriott.com/en-us/hotels/sjumr-courtyard-san-juan-miramar/overview/", "stars_osm": ""}, {"source": "geoapify", "source_id": "517017505e9a8750c0593400fff73b773240f00103f9017aee46590100000092031456696c6c6120486572656e63696120486f74656c", "zone_key": "pr_puerto_rico", "name": "Villa Herencia Hotel", "brand": "Sofo Hotels LLC", "latitude": 18.4657588, "longitude": -66.1187969, "address": "Villa Herencia Hotel", "city": "San Juan", "state": "Puerto Rico", "postcode": "00901", "country": "United States", "phone": "+1 787-722-0989", "website": "https://villaherencia.com/", "stars_osm": ""}, {"source": "geoapify", "source_id": "519ecc3ffaa68b50c059987fe9bcc6743240f00103f901146dfeef01000000920314436f6d666f727420496e6e202620537569746573", "zone_key": "pr_puerto_rico", "name": "Comfort Inn & Suites", "brand": "Comfort Inn & Suites", "latitude": 18.4561575, "longitude": -66.1820665, "address": "Comfort Inn & Suites", "city": "Toa Baja", "state": "Puerto Rico", "postcode": "00949", "country": "United States", "phone": "+1 787-641-9090", "website": "https://www.choicehotels.com/puerto-rico/levittown/comfort-inn-hotels", "stars_osm": ""}, {"source": "geoapify", "source_id": "5139b01c21835f50c0590220559e8a1d3240f00103f901738cb58b020000009203104869782049736c616e6420486f757365", "zone_key": "pr_puerto_rico", "name": "Hix Island House", "brand": "", "latitude": 18.1153964, "longitude": -65.4923785, "address": "Hix Island House", "city": "El Pil\u00f3n", "state": "Puerto Rico", "postcode": "00765", "country": "United States", "phone": "+1-787-435-4590", "website": "https://hixislandhouse.com/", "stars_osm": ""}, {"source": "geoapify", "source_id": "51bed8d6aa38c450c0591a90f6db32833240f00103f90120d1ecaa0200000092031256696c6c61732064656c204d617220486175", "zone_key": "pr_puerto_rico", "name": "Villas del Mar Hau", "brand": "", "latitude": 18.5124948, "longitude": -67.0659587, "address": "Villas del Mar Hau", "city": "", "state": "Puerto Rico", "postcode": "00690", "country": "United States", "phone": "+1 787-872-2045", "website": "https://www.paradorvillasdelmarhau.com/index.php?...", "stars_osm": ""}, {"source": "geoapify", "source_id": "51255c7e961d8450c0594897fc0dc9733240f00103f901c99d49fa020000009203134f6cc3a120426f75746971756520486f74656c", "zone_key": "pr_puerto_rico", "name": "Ol\u00e1 Boutique Hotel", "brand": "", "latitude": 18.4522866, "longitude": -66.0643059, "address": "Ol\u00e1 Boutique Hotel", "city": "San Juan", "state": "Puerto Rico", "postcode": "00907", "country": "United States", "phone": "+1-787-710-8620", "website": "https://www.theolahotel.com/", "stars_osm": ""}, {"source": "geoapify", "source_id": "510e6c4bd3d6c850c0590919a5a256333240f00103f9016da2fc1802000000920315506f7361646120486f74656c20436f6c6f6e69616c", "zone_key": "pr_puerto_rico", "name": "Posada Hotel Colonial", "brand": "Inversiones HRA, INC", "latitude": 18.2005407, "longitude": -67.1381119, "address": "Posada Hotel Colonial", "city": "Mayag\u00fcez", "state": "Puerto Rico", "postcode": "00680", "country": "United States", "phone": "+1 787-833-2150", "website": "", "stars_osm": ""}, {"source": "geoapify", "source_id": "51a874d1c26f8550c0593aa935e6bf743240f00101f901ae1a6a00000000009203124f6c696d706f20436f75727420486f74656c", "zone_key": "pr_puerto_rico", "name": "Olimpo Court Hotel", "brand": "", "latitude": 18.4560532, "longitude": -66.0849464, "address": "Olimpo Court Hotel", "city": "San Juan", "state": "Puerto Rico", "postcode": "00907", "country": "United States", "phone": "+1 787-724-0600", "website": "", "stars_osm": ""}, {"source": "geoapify", "source_id": "51939d2236898350c059b8882adc3c673240f00102f901128e7b040000000092030c447265616d7320486f74656c", "zone_key": "pr_puerto_rico", "name": "Dreams Hotel", "brand": "", "latitude": 18.4032724, "longitude": -66.0552497, "address": "Dreams Hotel", "city": "R\u00edo Piedras", "state": "Puerto Rico", "postcode": "00931", "country": "United States", "phone": "+1 787-688-5818", "website": "", "stars_osm": ""}, {"source": "geoapify", "source_id": "5176c4f38e068150c059cc62041203713240f00102f9010398fb130000000092031d48616d70746f6e20496e6e2026205375697465732053616e204a75616e", "zone_key": "pr_puerto_rico", "name": "Hampton Inn & Suites San Juan", "brand": "Hampton Inn & Suites", "latitude": 18.4414531, "longitude": -66.0160253, "address": "Hampton Inn & Suites San Juan", "city": "Carolina", "state": "Puerto Rico", "postcode": "00979", "country": "United States", "phone": "+1 787-791-8777", "website": "", "stars_osm": ""}, {"source": "geoapify", "source_id": "51c4dca458246850c059ea15be0adf5b3240f00103f901c98a4b1500000000920316456c20436f6e717569737461646f72205265736f7274", "zone_key": "pr_puerto_rico", "name": "El Conquistador Resort", "brand": "Waldorf Astoria Resort", "latitude": 18.3588721, "longitude": -65.6272184, "address": "El Conquistador Resort", "city": "Las Croabas", "state": "Puerto Rico", "postcode": "00738", "country": "United States", "phone": "", "website": "", "stars_osm": ""}, {"source": "geoapify", "source_id": "51e065b9ddccc950c05912c732546a383240f00102f90139c9bf17000000009203194d61796167c3bc657a205265736f7274202620436173696e6f", "zone_key": "pr_puerto_rico", "name": "Mayag\u00fcez Resort & Casino", "brand": "", "latitude": 18.2203725, "longitude": -67.153129, "address": "Mayag\u00fcez Resort & Casino", "city": "Mayag\u00fcez", "state": "Puerto Rico", "postcode": "00682", "country": "United States", "phone": "", "website": "", "stars_osm": ""}, {"source": "geoapify", "source_id": "512c5f77da7ac350c059422b63d861fa3140f00102f9010834561c000000009203094c61204a616d616361", "zone_key": "pr_puerto_rico", "name": "La Jamaca", "brand": "", "latitude": 17.9780555, "longitude": -67.0543734, "address": "La Jamaca", "city": "", "state": "Puerto Rico", "postcode": "", "country": "United States", "phone": "+17878996162", "website": "", "stars_osm": ""}, {"source": "geoapify", "source_id": "51ccdc02ff0e8150c0598c47a832d6713240f00102f901b66bba270000000092031b4a616465202853742e20436c61697220436f6c6c656374696f6e29", "zone_key": "pr_puerto_rico", "name": "Jade (St. Clair Collection)", "brand": "St. Clair Collection", "latitude": 18.4446747, "longitude": -66.0165403, "address": "Jade (St. Clair Collection)", "city": "Carolina", "state": "Puerto Rico", "postcode": "00979", "country": "United States", "phone": "", "website": "http://stclaircollection.com", "stars_osm": ""}, {"source": "geoapify", "source_id": "516a566c82dec150c05934b18a2881603240f00103f9017cddef800000000092031448616369656e646120656c204a6962617269746f", "zone_key": "pr_puerto_rico", "name": "Hacienda el Jibarito", "brand": "", "latitude": 18.3769708, "longitude": -67.0292059, "address": "Hacienda el Jibarito", "city": "Sector Domenech", "state": "Puerto Rico", "postcode": "00586", "country": "United States", "phone": "", "website": "", "stars_osm": ""}, {"source": "geoapify", "source_id": "51aa54f597829150c0598ffb9c79287a3240f00103f9014c2d868700000000920334456d6261737379205375697465732062792048696c746f6e20446f7261646f2064656c204d6172204265616368205265736f7274", "zone_key": "pr_puerto_rico", "name": "Embassy Suites by Hilton Dorado del Mar Beach Resort", "brand": "Embassy Suites", "latitude": 18.4771801, "longitude": -66.2735958, "address": "Embassy Suites by Hilton Dorado del Mar Beach Resort", "city": "Dorado", "state": "Puerto Rico", "postcode": "00646", "country": "United States", "phone": "", "website": "https://embassysuites3.hilton.com/en/hotels/puerto-rico/embassy-suites-by-hilton-dorado-del-mar-beach-resort-DORPRES/index.html", "stars_osm": ""}, {"source": "geoapify", "source_id": "51a9813001898350c05958fcf2f33a673240f00103f9010b75d7f70000000092030c447265616d7320486f74656c", "zone_key": "pr_puerto_rico", "name": "Dreams Hotel", "brand": "", "latitude": 18.4032433, "longitude": -66.0552371, "address": "Dreams Hotel", "city": "R\u00edo Piedras", "state": "Puerto Rico", "postcode": "00931", "country": "United States", "phone": "+1 787-688-5818", "website": "", "stars_osm": ""}, {"source": "geoapify", "source_id": "51da136e4356a750c059ec145543d1023240f00103f9017606f4f70000000092030e486f74656c2042c3a96c67696361", "zone_key": "pr_puerto_rico", "name": "Hotel B\u00e9lgica", "brand": "", "latitude": 18.0110056, "longitude": -66.6146401, "address": "Hotel B\u00e9lgica", "city": "Ponce", "state": "Puerto Rico", "postcode": "00717", "country": "United States", "phone": "+1-787-844-3255", "website": "", "stars_osm": ""}, {"source": "geoapify", "source_id": "510e187f36cd8150c05961f3252367713240f00103f901905cea110100000092030f56696c6c6120566572646520496e6e", "zone_key": "pr_puerto_rico", "name": "Villa Verde Inn", "brand": "", "latitude": 18.44298, "longitude": -66.0281502, "address": "Villa Verde Inn", "city": "Carolina", "state": "Puerto Rico", "postcode": "00913", "country": "United States", "phone": "+1 787-727-9457", "website": "", "stars_osm": ""}, {"source": "geoapify", "source_id": "51f0b1aa14718550c05992ce211dc3743240f00103f9017255f518010000009203124f6c696d706f20436f75727420486f74656c", "zone_key": "pr_puerto_rico", "name": "Olimpo Court Hotel", "brand": "", "latitude": 18.4561022, "longitude": -66.0850269, "address": "Olimpo Court Hotel", "city": "San Juan", "state": "Puerto Rico", "postcode": "00907", "country": "United States", "phone": "+1 787-724-0600", "website": "", "stars_osm": ""}, {"source": "geoapify", "source_id": "51393586ef338450c059353062b884713240f00103f901629b701b0100000092030e486f74656c20426f6cc3ad766172", "zone_key": "pr_puerto_rico", "name": "Hotel Bol\u00edvar", "brand": "", "latitude": 18.4434314, "longitude": -66.0656699, "address": "Hotel Bol\u00edvar", "city": "San Juan", "state": "Puerto Rico", "postcode": "00909", "country": "United States", "phone": "+1-787-593-2242", "website": "", "stars_osm": ""}, {"source": "geoapify", "source_id": "51a3fc4921b58450c059888472aab5743240f00103f901c401fc2401000000920306486942697264", "zone_key": "pr_puerto_rico", "name": "HiBird", "brand": "", "latitude": 18.455897, "longitude": -66.0735553, "address": "HiBird", "city": "San Juan", "state": "Puerto Rico", "postcode": "00907", "country": "United States", "phone": "", "website": "https://www.stayhibird.com/", "stars_osm": ""}, {"source": "geoapify", "source_id": "5161084a1bd88450c059e8628409ed743240f00103f901cc92fc240100000092030b436f6d666f727420496e6e", "zone_key": "pr_puerto_rico", "name": "Comfort Inn", "brand": "Comfort Inn", "latitude": 18.4567419, "longitude": -66.0756901, "address": "Comfort Inn", "city": "San Juan", "state": "Puerto Rico", "postcode": "00907", "country": "United States", "phone": "+1-787-721-0170", "website": "", "stars_osm": ""}, {"source": "geoapify", "source_id": "51a153eb58808450c0598b476a0476743240f00103f90196059c2801000000920313436173612064656c2043617269626520496e6e", "zone_key": "pr_puerto_rico", "name": "Casa del Caribe Inn", "brand": "", "latitude": 18.4549258, "longitude": -66.0703337, "address": "Casa del Caribe Inn", "city": "San Juan", "state": "Puerto Rico", "postcode": "00907", "country": "United States", "phone": "", "website": "https://casadelcaribeinn.com/", "stars_osm": ""}, {"source": "geoapify", "source_id": "516748cb3791c250c0594f667617cdf93140f00103f901f0dec3340100000092031550617261646f722056696c6c612064656c204d6172", "zone_key": "pr_puerto_rico", "name": "Parador Villa del Mar", "brand": "", "latitude": 17.9757857, "longitude": -67.0401134, "address": "Parador Villa del Mar", "city": "", "state": "Puerto Rico", "postcode": "", "country": "United States", "phone": "+17878994265", "website": "", "stars_osm": ""}, {"source": "geoapify", "source_id": "51165ffe54a68450c05964073f5123663240f00103f901c1f7b0580100000092030b466963757320486f74656c", "zone_key": "pr_puerto_rico", "name": "Ficus Hotel", "brand": "", "latitude": 18.3989764, "longitude": -66.0726521, "address": "Ficus Hotel", "city": "R\u00edo Piedras", "state": "Puerto Rico", "postcode": "00921", "country": "United States", "phone": "+1-787-751-5302", "website": "", "stars_osm": ""}, {"source": "geoapify", "source_id": "510e1bc0b659c650c059a18b40694d763240f00103f901e8f2376301000000920310486f74656c20456c2047697261736f6c", "zone_key": "pr_puerto_rico", "name": "Hotel El Girasol", "brand": "", "latitude": 18.4621187, "longitude": -67.0992257, "address": "Hotel El Girasol", "city": "", "state": "Puerto Rico", "postcode": "00603", "country": "United States", "phone": "+1 787-882-1440", "website": "", "stars_osm": ""}, {"source": "geoapify", "source_id": "51850fdbcc578750c059f9b5c88f42773240f00103f901396433360200000092030e4e61766f6e612053747564696f73", "zone_key": "pr_puerto_rico", "name": "Navona Studios", "brand": "", "latitude": 18.4658594, "longitude": -66.1147339, "address": "Navona Studios", "city": "San Juan", "state": "Puerto Rico", "postcode": "00901", "country": "United States", "phone": "+1 787-721-7573", "website": "", "stars_osm": ""}, {"source": "geoapify", "source_id": "51dba6785cd47350c059e7257504155a3240f00103f901adb3e0af02000000920313597571756979c3ba2054726565686f75736573", "zone_key": "pr_puerto_rico", "name": "Yuquiy\u00fa Treehouses", "brand": "", "latitude": 18.3518832, "longitude": -65.8098365, "address": "Yuquiy\u00fa Treehouses", "city": "R\u00edo Grande", "state": "Puerto Rico", "postcode": "00745", "country": "United States", "phone": "", "website": "https://www.yuquiyufarm.com/treehouses/", "stars_osm": ""}, {"source": "geoapify", "source_id": "51e6f86b19028150c059fa21e4303d713240f00101f901c0095b000000000092030c436f72616c20627920536561", "zone_key": "pr_puerto_rico", "name": "Coral by Sea", "brand": "", "latitude": 18.4423399, "longitude": -66.0157531, "address": "Coral by Sea", "city": "Carolina", "state": "Puerto Rico", "postcode": "00979", "country": "United States", "phone": "", "website": "", "stars_osm": ""}, {"source": "geoapify", "source_id": "511eb889b4ca8550c0595383c90160743240f00101f9013cf93b00000000009203235368657261746f6e2050756572746f205269636f20486f74656c202620436173696e6f", "zone_key": "pr_puerto_rico", "name": "Sheraton Puerto Rico Hotel & Casino", "brand": "Sheraton", "latitude": 18.45459, "longitude": -66.0904971, "address": "Sheraton Puerto Rico Hotel & Casino", "city": "San Juan", "state": "Puerto Rico", "postcode": "00908", "country": "United States", "phone": "", "website": "", "stars_osm": ""}, {"source": "geoapify", "source_id": "512f3c39948da650c05976be89c78ff83140f00102f9011ba243050000000092032148696c746f6e20506f6e636520476f6c66202620436173696e6f205265736f7274", "zone_key": "pr_puerto_rico", "name": "Hilton Ponce Golf & Casino Resort", "brand": "Hilton", "latitude": 17.9709439, "longitude": -66.6023913, "address": "Hilton Ponce Golf & Casino Resort", "city": "Ponce", "state": "Puerto Rico", "postcode": "00716", "country": "United States", "phone": "", "website": "", "stars_osm": ""}, {"source": "geoapify", "source_id": "51ecd7570a818750c059f25a752502773240f00102f9013e2cbe0e00000000920314486f74656c20506c617a612064652041726d6173", "zone_key": "pr_puerto_rico", "name": "Hotel Plaza de Armas", "brand": "", "latitude": 18.4648765, "longitude": -66.117251, "address": "Hotel Plaza de Armas", "city": "San Juan", "state": "Puerto Rico", "postcode": "00901", "country": "United States", "phone": "", "website": "", "stars_osm": ""}, {"source": "geoapify", "source_id": "51ff2fd398908450c059a7f7f4e0ee743240f00102f9015a9f68100000000092031153616e647920426561636820486f74656c", "zone_key": "pr_puerto_rico", "name": "Sandy Beach Hotel", "brand": "", "latitude": 18.45677, "longitude": -66.0713255, "address": "Sandy Beach Hotel", "city": "San Juan", "state": "Puerto Rico", "postcode": "00907", "country": "United States", "phone": "", "website": "", "stars_osm": ""}, {"source": "geoapify", "source_id": "51a3f0e5074f8450c059c71c81ec9a743240f00102f901b91bad1000000000920325414320486f74656c206279204d617272696f74742053616e204a75616e20436f6e6461646f", "zone_key": "pr_puerto_rico", "name": "AC Hotel by Marriott San Juan Condado", "brand": "AC Hotel", "latitude": 18.455489, "longitude": -66.0673237, "address": "AC Hotel by Marriott San Juan Condado", "city": "San Juan", "state": "Puerto Rico", "postcode": "00911", "country": "United States", "phone": "", "website": "", "stars_osm": ""}, {"source": "geoapify", "source_id": "5144b07d489a8550c0590c2e3ec38a763240f00102f901971a9811000000009203084d696368656c6c61", "zone_key": "pr_puerto_rico", "name": "Michella", "brand": "", "latitude": 18.4630549, "longitude": -66.0875417, "address": "Michella", "city": "San Juan", "state": "Puerto Rico", "postcode": "00906", "country": "United States", "phone": "", "website": "", "stars_osm": ""}, {"source": "geoapify", "source_id": "5155281c8bb76850c059f1d7fd76c8553240f00103f90158effb120000000092030b4a616a6172646f20496e6e", "zone_key": "pr_puerto_rico", "name": "Jajardo Inn", "brand": "", "latitude": 18.3350901, "longitude": -65.6362026, "address": "Jajardo Inn", "city": "Barrio Pueblo", "state": "Puerto Rico", "postcode": "00740", "country": "United States", "phone": "", "website": "", "stars_osm": ""}, {"source": "geoapify", "source_id": "51806e6aadd48050c059f69d74e08b713240f00102f901a0747c130000000092031a546865205269747a2d4361726c746f6e2c2053616e204a75616e", "zone_key": "pr_puerto_rico", "name": "The Ritz-Carlton, San Juan", "brand": "The Ritz-Carlton", "latitude": 18.4435406, "longitude": -66.0129808, "address": "The Ritz-Carlton, San Juan", "city": "Carolina", "state": "Puerto Rico", "postcode": "00979", "country": "United States", "phone": "", "website": "", "stars_osm": ""}, {"source": "geoapify", "source_id": "510cad91ace28750c059e4f2a75ce16a3240f00102f901b9c91d1400000000920313486f6c6964617920496e6e2045787072657373", "zone_key": "pr_puerto_rico", "name": "Holiday Inn Express", "brand": "Holiday Inn Express", "latitude": 18.4175013, "longitude": -66.1232101, "address": "Holiday Inn Express", "city": "", "state": "Puerto Rico", "postcode": "00934", "country": "United States", "phone": "", "website": "", "stars_osm": ""}, {"source": "geoapify", "source_id": "510f2d95330a8150c059c31110513b723240f00102f901bf028b170000000092030e4c6120506c61796120486f74656c", "zone_key": "pr_puerto_rico", "name": "La Playa Hotel", "brand": "", "latitude": 18.4462176, "longitude": -66.0162476, "address": "La Playa Hotel", "city": "Carolina", "state": "Puerto Rico", "postcode": "00979", "country": "United States", "phone": "", "website": "", "stars_osm": ""}, {"source": "geoapify", "source_id": "51defc6d72398a50c05960dabfdc82683240f00102f901a6e20c1800000000920314487961747420506c61636520426179616dc3b36e", "zone_key": "pr_puerto_rico", "name": "Hyatt Place Bayam\u00f3n", "brand": "Hyatt Place", "latitude": 18.4082468, "longitude": -66.1597563, "address": "Hyatt Place Bayam\u00f3n", "city": "Bayam\u00f3n", "state": "Puerto Rico", "postcode": "00961", "country": "United States", "phone": "", "website": "", "stars_osm": ""}, {"source": "geoapify", "source_id": "5161c93824978550c059b6164407b8743240f00102f90149f61c190000000092030b487961747420486f757365", "zone_key": "pr_puerto_rico", "name": "Hyatt House", "brand": "Hyatt House", "latitude": 18.4559331, "longitude": -66.0873499, "address": "Hyatt House", "city": "San Juan", "state": "Puerto Rico", "postcode": "00908", "country": "United States", "phone": "", "website": "", "stars_osm": ""}, {"source": "geoapify", "source_id": "5110c864581c7350c0598e09d7f4ea143240f00102f9010a12321b0000000092031054686520506c617a6120537569746573", "zone_key": "pr_puerto_rico", "name": "The Plaza Suites", "brand": "", "latitude": 18.0817102, "longitude": -65.7986051, "address": "The Plaza Suites", "city": "Palladio", "state": "Puerto Rico", "postcode": "00972", "country": "United States", "phone": "", "website": "", "stars_osm": ""}, {"source": "geoapify", "source_id": "51c2c826542b7350c05962f482a0ed143240f00102f9010b12321b00000000920309436c75622043616c61", "zone_key": "pr_puerto_rico", "name": "Club Cala", "brand": "", "latitude": 18.0817509, "longitude": -65.7995196, "address": "Club Cala", "city": "Palladio", "state": "Puerto Rico", "postcode": "00972", "country": "United States", "phone": "", "website": "", "stars_osm": ""}, {"source": "geoapify", "source_id": "5132eae3b3277350c059917dadf7c0143240f00102f9010c12321b00000000920309436c75622043616c61", "zone_key": "pr_puerto_rico", "name": "Club Cala", "brand": "", "latitude": 18.0810695, "longitude": -65.7992983, "address": "Club Cala", "city": "Palladio", "state": "Puerto Rico", "postcode": "00972", "country": "United States", "phone": "", "website": "", "stars_osm": ""}, {"source": "geoapify", "source_id": "51c79e1e8b9fa950c05937a01129bc0b3240f00102f9017fc5a71c00000000920313486f74656c204e7565766f204dc3a97869636f", "zone_key": "pr_puerto_rico", "name": "Hotel Nuevo M\u00e9xico", "brand": "", "latitude": 18.0458399, "longitude": -66.6503628, "address": "Hotel Nuevo M\u00e9xico", "city": "Ponce", "state": "Puerto Rico", "postcode": "00728", "country": "United States", "phone": "", "website": "", "stars_osm": ""}, {"source": "geoapify", "source_id": "51b26b2345b29250c059681ca33891323240f00102f901a7efd01d0000000092031248616369656e6461204d6172676172697461", "zone_key": "pr_puerto_rico", "name": "Hacienda Margarita", "brand": "", "latitude": 18.1975284, "longitude": -66.2921307, "address": "Calle Hacienda Margarita", "city": "Barranquitas", "state": "Puerto Rico", "postcode": "00794", "country": "United States", "phone": "", "website": "", "stars_osm": ""}, {"source": "geoapify", "source_id": "51ca03e679ecaa50c05920ef99cb57fa3140f00102f901a742dc1d00000000920328486f6c6964617920496e6e20506f6e636520616e6420456c2054726f706963616c20436173696e6f", "zone_key": "pr_puerto_rico", "name": "Holiday Inn Ponce and El Tropical Casino", "brand": "Holiday Inn", "latitude": 17.9779021, "longitude": -66.6706834, "address": "Holiday Inn Ponce and El Tropical Casino", "city": "Ponce", "state": "Puerto Rico", "postcode": "00728", "country": "United States", "phone": "", "website": "", "stars_osm": ""}, {"source": "geoapify", "source_id": "513ead8e13968450c059d3e06ce7a0743240f00102f9012cea4b1e0000000092030c436f6e6461646f2050616c6d", "zone_key": "pr_puerto_rico", "name": "Condado Palm", "brand": "", "latitude": 18.4555802, "longitude": -66.0716599, "address": "Condado Palm", "city": "San Juan", "state": "Puerto Rico", "postcode": "00907", "country": "United States", "phone": "", "website": "", "stars_osm": ""}, {"source": "geoapify", "source_id": "51e28f7e9a1dbd50c059405ccaa6017d3240f00102f90133ef691f00000000920312486f74656c20456c204775616a6174616361", "zone_key": "pr_puerto_rico", "name": "Hotel El Guajataca", "brand": "", "latitude": 18.4883065, "longitude": -66.9549319, "address": "Hotel El Guajataca", "city": "Quebradillas", "state": "Puerto Rico", "postcode": "00678", "country": "United States", "phone": "", "website": "", "stars_osm": ""}, {"source": "geoapify", "source_id": "513d81fc24095d50c05938456e6bb0233240f00102f901b1a67d1f0000000092030e416476656e747572657320496e6e", "zone_key": "pr_puerto_rico", "name": "Adventures Inn", "brand": "", "latitude": 18.1394107, "longitude": -65.4536831, "address": "Adventures Inn", "city": "Sector Tortuguero", "state": "Puerto Rico", "postcode": "00765", "country": "United States", "phone": "", "website": "", "stars_osm": ""}, {"source": "geoapify", "source_id": "51ec593206d86d50c059de450d97b0603240f00102f901b2df821f0000000092031a4c757175696c6c6f2053756e7269736520426561636820496e6e", "zone_key": "pr_puerto_rico", "name": "Luquillo Sunrise Beach Inn", "brand": "", "latitude": 18.3776946, "longitude": -65.7163101, "address": "Luquillo Sunrise Beach Inn", "city": "Luquillo", "state": "Puerto Rico", "postcode": "00773", "country": "United States", "phone": "", "website": "", "stars_osm": ""}, {"source": "geoapify", "source_id": "51031996cdee9750c05996536948cb093240f00102f9019328891f0000000092031d486f74656c2050617261646f72204261c3b16f7320646520436f616d6f", "zone_key": "pr_puerto_rico", "name": "Hotel Parador Ba\u00f1os de Coamo", "brand": "", "latitude": 18.0382581, "longitude": -66.3739504, "address": "Hotel Parador Ba\u00f1os de Coamo", "city": "", "state": "Puerto Rico", "postcode": "00769", "country": "United States", "phone": "", "website": "", "stars_osm": ""}, {"source": "geoapify", "source_id": "51a2d5008edfb250c059a0c5bc85647d3240f00102f9012572b21f00000000920327486f74656c20486f6e6f7261626c65204a75616e204c756973204375657661732043617374726f", "zone_key": "pr_puerto_rico", "name": "Hotel Honorable Juan Luis Cuevas Castro", "brand": "", "latitude": 18.4898151, "longitude": -66.7948947, "address": "Hotel Honorable Juan Luis Cuevas Castro", "city": "", "state": "Puerto Rico", "postcode": "00659", "country": "United States", "phone": "", "website": "", "stars_osm": ""}, {"source": "geoapify", "source_id": "51e82aa59f7f9e50c059920e51afef6e3240f00102f90122c3452000000000920313487961747420506c616365204d616e6174c3ad", "zone_key": "pr_puerto_rico", "name": "Hyatt Place Manat\u00ed", "brand": "Hyatt Place", "latitude": 18.4333448, "longitude": -66.4765395, "address": "Hyatt Place Manat\u00ed", "city": "Manat\u00ed", "state": "Puerto Rico", "postcode": "00674", "country": "United States", "phone": "", "website": "", "stars_osm": ""}, {"source": "geoapify", "source_id": "519de799a82f5e50c0599644c7ba5d183240f00102f901eb56df2400000000920307456c20426c6f6b", "zone_key": "pr_puerto_rico", "name": "El Blok", "brand": "", "latitude": 18.0951802, "longitude": -65.4716589, "address": "El Blok", "city": "", "state": "Puerto Rico", "postcode": "00765", "country": "United States", "phone": "", "website": "", "stars_osm": ""}, {"source": "geoapify", "source_id": "519c9ead160b8150c0598a70bb9f53723240f00102f901b464ba270000000092031b4e6f6972202853742e20436c61697220436f6c6c656374696f6e29", "zone_key": "pr_puerto_rico", "name": "Noir (St. Clair Collection)", "brand": "St. Clair Collection", "latitude": 18.4465885, "longitude": -66.0163018, "address": "Noir (St. Clair Collection)", "city": "Carolina", "state": "Puerto Rico", "postcode": "00979", "country": "United States", "phone": "", "website": "", "stars_osm": ""}, {"source": "geoapify", "source_id": "51d261557aaba650c0599a6d2b4135ff3140f00102f901e4e5db340000000092030b416c6f667420506f6e6365", "zone_key": "pr_puerto_rico", "name": "Aloft Ponce", "brand": "Aloft", "latitude": 17.9969064, "longitude": -66.6042162, "address": "Aloft Ponce", "city": "Ponce", "state": "Puerto Rico", "postcode": "00716", "country": "United States", "phone": "", "website": "", "stars_osm": ""}, {"source": "geoapify", "source_id": "511486127706bd50c059d7072d87717c3240f00103f901352a0f3d0000000092031050617261646f722056697374616d6172", "zone_key": "pr_puerto_rico", "name": "Parador Vistamar", "brand": "", "latitude": 18.4861073, "longitude": -66.9535196, "address": "Parador Vistamar", "city": "Quebradillas", "state": "Puerto Rico", "postcode": "00678", "country": "United States", "phone": "", "website": "", "stars_osm": ""}, {"source": "geoapify", "source_id": "51de1caed59ec150c059fb64348eec813240f00103f901f392103d00000000920312436f72616c204265616368205265736f7274", "zone_key": "pr_puerto_rico", "name": "Coral Beach Resort", "brand": "", "latitude": 18.5075158, "longitude": -67.0253195, "address": "Coral Beach Resort", "city": "Isabela", "state": "Puerto Rico", "postcode": "00662", "country": "United States", "phone": "", "website": "", "stars_osm": ""}, {"source": "geoapify", "source_id": "51cc57135589c650c05983306d8a11833240f00103f901b0a3103d0000000092031b56696c6c61204d6f6e7461c3b161204265616368205265736f7274", "zone_key": "pr_puerto_rico", "name": "Villa Monta\u00f1a Beach Resort", "brand": "", "latitude": 18.5119864, "longitude": -67.1021321, "address": "Villa Monta\u00f1a Beach Resort", "city": "Sector Quique Bravo", "state": "Puerto Rico", "postcode": "00690", "country": "United States", "phone": "", "website": "", "stars_osm": ""}, {"source": "geoapify", "source_id": "51f46a25195e8350c05929ad3dafc2313240f00103f90142e6253d00000000920332466f757220506f696e7473206279205368657261746f6e20436167756173205265616c20486f74656c202620436173696e6f", "zone_key": "pr_puerto_rico", "name": "Four Points by Sheraton Caguas Real Hotel & Casino", "brand": "Four Points by Sheraton", "latitude": 18.1943769, "longitude": -66.0526183, "address": "Four Points by Sheraton Caguas Real Hotel & Casino", "city": "Caguas", "state": "Puerto Rico", "postcode": "00727", "country": "United States", "phone": "", "website": "", "stars_osm": ""}, {"source": "geoapify", "source_id": "5199396e426b8150c05941c3360c7a703240f00103f9012506263d00000000920330456d6261737379205375697465732062792048696c746f6e2053616e204a75616e20486f74656c202620436173696e6f", "zone_key": "pr_puerto_rico", "name": "Embassy Suites by Hilton San Juan Hotel & Casino", "brand": "Embassy Suites", "latitude": 18.4393623, "longitude": -66.0221716, "address": "Embassy Suites by Hilton San Juan Hotel & Casino", "city": "Carolina", "state": "Puerto Rico", "postcode": "00979", "country": "United States", "phone": "", "website": "", "stars_osm": ""}, {"source": "geoapify", "source_id": "511455bf7de38550c059c2c0121780743240f00102f9016177973d0000000092030e416c6f66742053616e204a75616e", "zone_key": "pr_puerto_rico", "name": "Aloft San Juan", "brand": "Aloft", "latitude": 18.4550795, "longitude": -66.09201, "address": "Aloft San Juan", "city": "San Juan", "state": "Puerto Rico", "postcode": "00906", "country": "United States", "phone": "", "website": "", "stars_osm": ""}, {"source": "geoapify", "source_id": "5170e93d3a9a8050c0593067ba4b87713240f00103f9014593dd4800000000920321436f757274796172642049736c61205665726465204265616368205265736f7274", "zone_key": "pr_puerto_rico", "name": "Courtyard Isla Verde Beach Resort", "brand": "Courtyard", "latitude": 18.4434707, "longitude": -66.0094133, "address": "Courtyard Isla Verde Beach Resort", "city": "Carolina", "state": "Puerto Rico", "postcode": "00979", "country": "United States", "phone": "", "website": "", "stars_osm": ""}, {"source": "geoapify", "source_id": "51fbf4ebe8018150c05964a7e4b55c713240f00102f901aebb224900000000920313486f74656c2056696c6c612064656c20536f6c", "zone_key": "pr_puerto_rico", "name": "Hotel Villa del Sol", "brand": "", "latitude": 18.4428209, "longitude": -66.0157416, "address": "Hotel Villa del Sol", "city": "Carolina", "state": "Puerto Rico", "postcode": "00979", "country": "United States", "phone": "", "website": "", "stars_osm": ""}, {"source": "geoapify", "source_id": "510d3be702726b50c059f4010909ac453240f00103f90160d6028100000000920311436569626120436f756e74727920496e6e", "zone_key": "pr_puerto_rico", "name": "Ceiba Country Inn", "brand": "", "latitude": 18.2721563, "longitude": -65.6788337, "address": "Ceiba Country Inn", "city": "Ceiba", "state": "Puerto Rico", "postcode": "00735", "country": "United States", "phone": "", "website": "", "stars_osm": ""}, {"source": "geoapify", "source_id": "51204c9bbb27c550c05957b313b067833240f00103f901e8a40e810000000092030b4f6365616e2046726f6e74", "zone_key": "pr_puerto_rico", "name": "Ocean Front", "brand": "", "latitude": 18.5133009, "longitude": -67.0805501, "address": "Ocean Front", "city": "", "state": "Puerto Rico", "postcode": "00690", "country": "United States", "phone": "", "website": "", "stars_osm": ""}, {"source": "geoapify", "source_id": "512176018a6c5e50c05988b7abf298183240f00103f9018cb1838b0000000092030e4d616c6563c3b36e20486f757365", "zone_key": "pr_puerto_rico", "name": "Malec\u00f3n House", "brand": "", "latitude": 18.0960838, "longitude": -65.4753747, "address": "Malec\u00f3n House", "city": "", "state": "Puerto Rico", "postcode": "00765", "country": "United States", "phone": "", "website": "", "stars_osm": ""}, {"source": "geoapify", "source_id": "51c504ebee705e50c059dda1991d98183240f00103f901bbb1838b0000000092031754726164652057696e647320477565737420486f757365", "zone_key": "pr_puerto_rico", "name": "Trade Winds Guest House", "brand": "", "latitude": 18.0960711, "longitude": -65.4756429, "address": "Trade Winds Guest House", "city": "", "state": "Puerto Rico", "postcode": "00765", "country": "United States", "phone": "", "website": "", "stars_osm": ""}, {"source": "geoapify", "source_id": "51e3defc86898750c059b1fb55e300773240f00103f90130b08b9700000000920311426f766564612041706172746d656e7473", "zone_key": "pr_puerto_rico", "name": "Boveda Apartments", "brand": "", "latitude": 18.4648573, "longitude": -66.117769, "address": "Boveda Apartments", "city": "San Juan", "state": "Puerto Rico", "postcode": "00901", "country": "United States", "phone": "", "website": "", "stars_osm": ""}, {"source": "geoapify", "source_id": "5121eba9d5d7c850c05942f0971293333240f00103f90166c9849900000000920314486f74656c204d6179616775657a20506c617a61", "zone_key": "pr_puerto_rico", "name": "Hotel Mayaguez Plaza", "brand": "", "latitude": 18.2014629, "longitude": -67.1381735, "address": "Hotel Mayaguez Plaza", "city": "Mayag\u00fcez", "state": "Puerto Rico", "postcode": "00682", "country": "United States", "phone": "", "website": "", "stars_osm": ""}, {"source": "geoapify", "source_id": "512b84d558428750c05966999bd255773240f00103f9017dcac59e00000000920308446127486f757365", "zone_key": "pr_puerto_rico", "name": "Da'House", "brand": "", "latitude": 18.4661533, "longitude": -66.1134245, "address": "Da'House", "city": "San Juan", "state": "Puerto Rico", "postcode": "00901", "country": "United States", "phone": "", "website": "", "stars_osm": ""}, {"source": "geoapify", "source_id": "5187b949b1488750c05929a9639d2a773240f00103f9018ccac59e0000000092030c486f74656c204d696c616e6f", "zone_key": "pr_puerto_rico", "name": "Hotel Milano", "brand": "", "latitude": 18.465494, "longitude": -66.1138118, "address": "Hotel Milano", "city": "San Juan", "state": "Puerto Rico", "postcode": "00901", "country": "United States", "phone": "", "website": "", "stars_osm": ""}, {"source": "geoapify", "source_id": "514fd99f7a5a8750c059d3b96f7319773240f00103f901e022ca9e00000000920311532e4a2e2053756974657320486f74656c", "zone_key": "pr_puerto_rico", "name": "S.J. Suites Hotel", "brand": "", "latitude": 18.4652321, "longitude": -66.1148974, "address": "S.J. Suites Hotel", "city": "San Juan", "state": "Puerto Rico", "postcode": "00901", "country": "United States", "phone": "", "website": "", "stars_osm": ""}, {"source": "geoapify", "source_id": "5137d906ee408750c0595348ee5d28773240f00103f901c68dcb9e00000000920310486f74656c2043617361626c616e6361", "zone_key": "pr_puerto_rico", "name": "Hotel Casablanca", "brand": "", "latitude": 18.4654597, "longitude": -66.113338, "address": "Hotel Casablanca", "city": "San Juan", "state": "Puerto Rico", "postcode": "00901", "country": "United States", "phone": "", "website": "", "stars_osm": ""}, {"source": "geoapify", "source_id": "51a00d0a945e8750c0592db5acb992773240f00103f901ba0922a30000000092030a4c612054657272617a61", "zone_key": "pr_puerto_rico", "name": "La Terraza", "brand": "", "latitude": 18.4670826, "longitude": -66.1151476, "address": "La Terraza", "city": "San Juan", "state": "Puerto Rico", "postcode": "00901", "country": "United States", "phone": "", "website": "", "stars_osm": ""}, {"source": "geoapify", "source_id": "51c92e62e90da950c059985100fac7483240f00103f901de7579a70000000092031c43617361204772616e6465204d6f756e7461696e2052657472656174", "zone_key": "pr_puerto_rico", "name": "Casa Grande Mountain Retreat", "brand": "", "latitude": 18.2843014, "longitude": -66.6414741, "address": "Acceso a Casa Grande Mountain Retreat", "city": "", "state": "Puerto Rico", "postcode": "", "country": "United States", "phone": "", "website": "", "stars_osm": ""}, {"source": "geoapify", "source_id": "51eb472f0f3eaf50c059be080117092c3240f00103f90159ff82f00000000092031356696c6c617320646520536f746f6d61796f72", "zone_key": "pr_puerto_rico", "name": "Villas de Sotomayor", "brand": "", "latitude": 18.1720137, "longitude": -66.7381628, "address": "Villas de Sotomayor", "city": "Adjuntas", "state": "Puerto Rico", "postcode": "00601", "country": "United States", "phone": "", "website": "", "stars_osm": ""}, {"source": "geoapify", "source_id": "51fd8a9015578950c059dce7e54691653240f00103f901593762180100000092031653616e204d696775656c20506c617a6120486f74656c", "zone_key": "pr_puerto_rico", "name": "San Miguel Plaza Hotel", "brand": "", "latitude": 18.396748, "longitude": -66.1459402, "address": "San Miguel Plaza Hotel", "city": "Bayam\u00f3n", "state": "Puerto Rico", "postcode": "00960", "country": "United States", "phone": "", "website": "", "stars_osm": ""}, {"source": "geoapify", "source_id": "51b21a01cb005c50c0591e2f148486253240f00103f90145e7c41d0100000092030d5365616761746520486f74656c", "zone_key": "pr_puerto_rico", "name": "Seagate Hotel", "brand": "", "latitude": 18.1465838, "longitude": -65.4375484, "address": "Seagate Hotel", "city": "Isabel II", "state": "Puerto Rico", "postcode": "00765", "country": "United States", "phone": "", "website": "", "stars_osm": ""}, {"source": "geoapify", "source_id": "51f9da334b829450c059b0bc61996d793240f00103f901d6f7d321010000009203274879617474205661636174696f6e20436c75622061742048616369656e64612064656c204d6172", "zone_key": "pr_puerto_rico", "name": "Hyatt Vacation Club at Hacienda del Mar", "brand": "Hyatt Vacation Club", "latitude": 18.4743286, "longitude": -66.3204525, "address": "Hyatt Vacation Club at Hacienda del Mar", "city": "", "state": "Puerto Rico", "postcode": "00692", "country": "United States", "phone": "", "website": "", "stars_osm": ""}, {"source": "geoapify", "source_id": "51a0e52fe3dc8450c059d5fa901a6e753240f00103f901a8b4e12401000000920313436f6e6461646f2056616e6465726275696c74", "zone_key": "pr_puerto_rico", "name": "Condado Vanderbuilt", "brand": "", "latitude": 18.4587113, "longitude": -66.0759819, "address": "Condado Vanderbuilt", "city": "San Juan", "state": "Puerto Rico", "postcode": "00907", "country": "United States", "phone": "", "website": "", "stars_osm": ""}, {"source": "geoapify", "source_id": "514754a86e2e8450c059790b9f21c1733240f00103f901fac990250100000092030c486f74656c20496265726961", "zone_key": "pr_puerto_rico", "name": "Hotel Iberia", "brand": "", "latitude": 18.4521657, "longitude": -66.065334, "address": "Hotel Iberia", "city": "San Juan", "state": "Puerto Rico", "postcode": "00907", "country": "United States", "phone": "", "website": "", "stars_osm": ""}, {"source": "geoapify", "source_id": "51b8dfa128508350c059a892224b30743240f00103f9018f894e2601000000920311486f73746572c3ad612064656c204d6172", "zone_key": "pr_puerto_rico", "name": "Hoster\u00eda del Mar", "brand": "", "latitude": 18.4538619, "longitude": -66.0517675, "address": "Hoster\u00eda del Mar", "city": "San Juan", "state": "Puerto Rico", "postcode": "00911", "country": "United States", "phone": "", "website": "", "stars_osm": ""}, {"source": "geoapify", "source_id": "51227d4919a78450c059e502fd8d76743240f00103f90147369c28010000009203124361736120436f6e6461646f20486f74656c", "zone_key": "pr_puerto_rico", "name": "Casa Condado Hotel", "brand": "", "latitude": 18.454934, "longitude": -66.0726989, "address": "Casa Condado Hotel", "city": "San Juan", "state": "Puerto Rico", "postcode": "00907", "country": "United States", "phone": "", "website": "", "stars_osm": ""}, {"source": "geoapify", "source_id": "5111aedbfb2f5e50c05942ae00e65a183240f00103f901cc815e3201000000920307456c20426c6f6b", "zone_key": "pr_puerto_rico", "name": "El Blok", "brand": "", "latitude": 18.095137, "longitude": -65.4716787, "address": "El Blok", "city": "", "state": "Puerto Rico", "postcode": "00765", "country": "United States", "phone": "", "website": "", "stars_osm": ""}, {"source": "geoapify", "source_id": "51eab46e83da8350c059fbf0148b29743240f00103f901d0b140380100000092031541636163696120426f75746971756520486f74656c", "zone_key": "pr_puerto_rico", "name": "Acacia Boutique Hotel", "brand": "", "latitude": 18.4537589, "longitude": -66.060212, "address": "Acacia Boutique Hotel", "city": "R\u00edo Piedras", "state": "Puerto Rico", "postcode": "00911", "country": "United States", "phone": "", "website": "", "stars_osm": ""}, {"source": "geoapify", "source_id": "51d9243fe2d78250c059a45322a2e2733240f00103f9012ebfbe420100000092030f547265732050616c6d617320496e6e", "zone_key": "pr_puerto_rico", "name": "Tres Palmas Inn", "brand": "", "latitude": 18.4526769, "longitude": -66.0444265, "address": "Tres Palmas Inn", "city": "San Juan", "state": "Puerto Rico", "postcode": "00913", "country": "United States", "phone": "", "website": "", "stars_osm": ""}, {"source": "geoapify", "source_id": "51b3b3e89d8a8750c0595813cca0da763240f00103f9017d644759010000009203134d6f6e6173746572792041727420486f74656c", "zone_key": "pr_puerto_rico", "name": "Monastery Art Hotel", "brand": "", "latitude": 18.4642735, "longitude": -66.1178355, "address": "Monastery Art Hotel", "city": "San Juan", "state": "Puerto Rico", "postcode": "00901", "country": "United States", "phone": "", "website": "", "stars_osm": ""}, {"source": "geoapify", "source_id": "519c4aabc6b76e50c059aae0f75ad0413240f00103f901ee9c367c0100000092031d416e746f6e696f2073656320736f6e61646f72612c206e61677561626f", "zone_key": "pr_puerto_rico", "name": "Antonio sec sonadora, naguabo", "brand": "", "latitude": 18.2570855, "longitude": -65.7299668, "address": "Antonio sec sonadora, naguabo", "city": "", "state": "Puerto Rico", "postcode": "00718", "country": "United States", "phone": "", "website": "", "stars_osm": ""}, {"source": "geoapify", "source_id": "5146c263e4518050c059484c0df269703240f00103f901a0bc0b8c0100000092031653616e204a75616e20416972706f727420486f74656c", "zone_key": "pr_puerto_rico", "name": "San Juan Airport Hotel", "brand": "", "latitude": 18.4391166, "longitude": -66.0049983, "address": "San Juan Airport Hotel", "city": "Carolina", "state": "Puerto Rico", "postcode": "00979", "country": "United States", "phone": "", "website": "", "stars_osm": ""}, {"source": "geoapify", "source_id": "519f2e9cb5257150c059163bdabdcb653240f00103f901d71e5f1a0200000092030f436173612044656c204d6172204949", "zone_key": "pr_puerto_rico", "name": "Casa Del Mar II", "brand": "", "latitude": 18.3976401, "longitude": -65.7679266, "address": "Casa Del Mar II", "city": "Lindo Mar", "state": "Puerto Rico", "postcode": "00721", "country": "United States", "phone": "", "website": "", "stars_osm": ""}, {"source": "geoapify", "source_id": "51c81f0c3c777450c0590f242ad9a0693240f00103f901d47d18770200000092032d5468652053742e205265676973204261686961204265616368205265736f72742c2050756572746f205269636f", "zone_key": "pr_puerto_rico", "name": "The St. Regis Bahia Beach Resort, Puerto Rico", "brand": "St. Regis", "latitude": 18.4126106, "longitude": -65.8197775, "address": "The St. Regis Bahia Beach Resort, Puerto Rico", "city": "R\u00edo Grande", "state": "Puerto Rico", "postcode": "00745", "country": "United States", "phone": "", "website": "", "stars_osm": ""}, {"source": "geoapify", "source_id": "51b8ab5791d18150c05969eca4326a713240f00103f90139d3f2860200000092030e4e6f6d61646120486f7374656c73", "zone_key": "pr_puerto_rico", "name": "Nomada Hostels", "brand": "", "latitude": 18.4430267, "longitude": -66.028416, "address": "Nomada Hostels", "city": "Carolina", "state": "Puerto Rico", "postcode": "00979", "country": "United States", "phone": "", "website": "", "stars_osm": ""}, {"source": "geoapify", "source_id": "51cee8a27c9c8650c05942bd086c18773240f00103f9017b299cb002000000920314486f74656c2050756572746f2056616c64c3a973", "zone_key": "pr_puerto_rico", "name": "Hotel Puerto Vald\u00e9s", "brand": "", "latitude": 18.4652164, "longitude": -66.1033012, "address": "Hotel Puerto Vald\u00e9s", "city": "San Juan", "state": "Puerto Rico", "postcode": "00901", "country": "United States", "phone": "", "website": "", "stars_osm": ""}, {"source": "geoapify", "source_id": "51790db045c18350c0592db7a1d6d9733240f00103f901f06558fd0200000092030c4c6120426f74c3a16e696361", "zone_key": "pr_puerto_rico", "name": "La Bot\u00e1nica", "brand": "", "latitude": 18.4525427, "longitude": -66.0586714, "address": "La Bot\u00e1nica", "city": "R\u00edo Piedras", "state": "Puerto Rico", "postcode": "00911", "country": "United States", "phone": "", "website": "", "stars_osm": ""}, {"source": "geoapify", "source_id": "51cedce808858650c0592ecabc5d2f773240f00103f901e5c1c7070300000092030c4f6c6976657220486f74656c", "zone_key": "pr_puerto_rico", "name": "Oliver Hotel", "brand": "", "latitude": 18.4655665, "longitude": -66.1018698, "address": "Oliver Hotel", "city": "San Juan", "state": "Puerto Rico", "postcode": "00906", "country": "United States", "phone": "", "website": "", "stars_osm": ""}]}
